시설년도,위치코드,시설구분1,시설구분2,쉼터명칭,도로명주소,지번주소,시설면적,이용가능인원,비고,경도,위도,선풍기보유대수,에어컨보유대수,야간운영여부,휴일운영여부,숙박가능여부,관리부서명,관리부서전화번호
2025,1120054000,특정계층이용시설,회원이용시설,정화경로당,서울특별시 성동구 마장로33길 29-5,서울특별시 성동구 마장동 513-26,40,10,,127.038457,37.568471,1,1,N,N,N,,02-2286-5868
2025,1120054000,특정계층이용시설,회원이용시설,청계현대(아)경로당,서울특별시 성동구 마장로35길 76 (청계현대아파트 102동),서울특별시 성동구 마장동 818,218,40,,127.042603,37.569599,2,1,N,N,N,,02-2286-5868
2025,1120054000,특정계층이용시설,회원이용시설,청계미소지움(아)경로당,서울특별시 성동구 마장로39길 43 (청계미소지움 101동),서울특별시 성동구 마장동 822,58,17,,127.043728,37.568857,2,1,N,N,N,,02-2286-5868
2025,1120054000,특정계층이용시설,회원이용시설,왕십리금호어울림(아)경로당,서울특별시 성동구 마조로 55 (왕십리금호어울림아파트 6동),서울특별시 성동구 마장동 820,81,24,,127.040736,37.563062,3,1,N,N,N,,02-2286-5868
2025,1120054000,특정계층이용시설,회원이용시설,왕십리대성유니드(아)경로당,서울특별시 성동구 마장로37길 7 (대성유니드아파트 103동),서울특별시 성동구 마장동 825,72,21,,127.038691,37.566752,2,2,N,N,N,,02-2286-5868
2025,1120054000,특정계층이용시설,회원이용시설,일송경로당,서울특별시 성동구 마조로15가길 23 (마장 에스에이치빌 101동),서울특별시 성동구 마장동 831,67,20,,127.040124,37.564485,2,1,N,N,N,,02-2286-5868
2025,1120054000,특정계층이용시설,회원이용시설,왕십리중앙하이츠(아)경로당,서울특별시 성동구 마장로 262 (중앙하이츠아파트 102동),서울특별시 성동구 마장동 819,59,17,,127.039236,37.565466,2,1,N,N,N,,02-2286-5868
2025,1120054000,야외시설,공원,마장동자전거체험학습장인근샘물창고,서울특별시 성동구 살곶이길 40,서울특별시 성동구 마장동 803,3.3,8,,127.0442677,37.570059,0,0,,,,,02-2286-5580
2025,1120054000,공공시설,공공청사,마장동주민센터,서울특별시 성동구 마장로42길 11,서울특별시 성동구 마장동 780-2,866,12,,127.045289,37.5663242,5,2,N,Y,N,,02-2286-5868
2025,1120054000,공공시설,복지?문화?체육시설,성동종합사회복지관,서울특별시 성동구 청계천로 506,서울특별시 성동구 마장동 527-2,"5,468.00",15,,127.033643,37.5703644,6,6,N,N,N,,02-2286-5868
2025,1120054000,특정계층이용시설,회원이용시설,시립성동노인종합복지관,서울특별시 성동구 마조로 77,서울특별시 성동구 마장동 798-1,"2,675.00",70,,127.041319,37.564791,10,5,N,N,N,,02-2286-5868
2025,1120054000,특정계층이용시설,회원이용시설,왕좌경로당,서울특별시 성동구 청계천로10나길 40-5 ,서울특별시 성동구 마장동 463-16,42,12,,127.035228,37.5700126,2,1,N,N,N,,02-2286-5868
2025,1111051500,공공시설,복지?문화?체육시설,종로장애인복지관,서울특별시 종로구 자하문로 89,서울특별시 종로구 신교동 66,"3,754.00",100,,126.9697264,37.5842461,0,5,N,N,N,,02-2148-2202
2025,1111051500,공공시설,공공청사,청운효자동주민센터,서울특별시 종로구 자하문로 92,서울특별시 종로구 궁정동 12-1,200,50,폭염특보 시 추가운영,126.9706558,37.5840952,12,2,,Y,,,02-2148-2208
2025,1111051500,특정계층이용시설,회원이용시설,청운경로당,서울특별시 종로구 필운대로 86,서울특별시 종로구 신교동 6-27,120,30,,126.967421,37.5834852,0,2,,,,,02-2148-2208
2025,1111053000,특정계층이용시설,회원이용시설,사직경로당,서울특별시 종로구 사직로9길 15-25 ,서울특별시 종로구 사직동 262-197,158.5,30,,126.9655864,37.5764535,3,2,,,,,02-2148-2208
2025,1111053000,공공시설,공공청사,사직동주민센터,서울특별시 종로구 경희궁1길 15,서울특별시 종로구 신문로2가 1-122,400,50,폭염특보 시 추가운영,126.9706517,37.571394,0,6,,Y,,,02-2148-2208
2025,1111054000,특정계층이용시설,회원이용시설,삼청경로당,서울특별시 종로구 삼청로5길 30,서울특별시 종로구 팔판동 119,118.8,38,,126.980226,37.583069,3,2,,,,,02-2148-2208
2025,1111054000,특정계층이용시설,회원이용시설,복정경로당,서울특별시 종로구 삼청로4길 22,서울특별시 종로구 삼청동 35-113,200,30,,126.9821249,37.5823969,2,2,,,,,02-2148-2208
2025,1111054000,공공시설,공공청사,삼청동주민센터,서울특별시 종로구 삼청로 107,서울특별시 종로구 삼청동 105-1,200,50,폭염특보 시 추가운영,126.9817601,37.5849943,5,3,,Y,,,02-2148-2208
2025,1111055000,특정계층이용시설,회원이용시설,부암경로당,서울특별시 종로구 자하문로 260,서울특별시 종로구 부암동 141-1,180,45,,126.9634272,37.5973744,3,2,,,,,02-2148-2208
2025,1111055000,특정계층이용시설,회원이용시설,신영경로당,서울특별시 종로구 세검정로6길 76-19 ,서울특별시 종로구 신영동 87-1,143.24,30,,126.9636445,37.601291,4,2,,,,,02-2148-2208
2025,1111055000,공공시설,공공청사,부암동주민센터,서울특별시 종로구 창의문로 145,서울특별시 종로구 부암동 265-21,400,50,폭염특보 시 추가운영,126.9640763,37.5924354,5,3,,Y,,,02-2148-2208
2025,1111056000,특정계층이용시설,회원이용시설,구기할아버지경로당,서울특별시 종로구 진흥로 438-6 ,서울특별시 종로구 구기동 110-4,70,30,,126.9564991,37.607804,3,2,,,,,02-2148-2208
2025,1111056000,공공시설,공공청사,평창동주민센터,서울특별시 종로구 평창문화로 65,서울특별시 종로구 평창동 186-9,200,50,폭염특보 시 추가운영,126.9683786,37.6063867,0,1,,Y,,,02-2148-2208
2025,1111056000,특정계층이용시설,회원이용시설,구기할머니경로당,서울특별시 종로구 진흥로 438-8 ,서울특별시 종로구 구기동 110-30,70,30,,126.9563703,37.607872,2,1,,,,,02-2148-2208
2025,1111057000,공공시설,공공청사,무악동주민센터,서울특별시 종로구 통일로14길 36,서울특별시 종로구 무악동 60-2,400,40,폭염특보 시 추가운영,126.9582278,37.5760029,0,15,,,,,02-2148-2208
2025,1111057000,특정계층이용시설,회원이용시설,무악경로당,서울특별시 종로구 통일로14길 19,서울특별시 종로구 무악동 69-3,104.05,30,,126.9577785,37.5754289,3,2,,,,,02-2148-2208
2025,1111057000,특정계층이용시설,회원이용시설,무악제2경로당,서울특별시 종로구 통일로 246-11 ,서울특별시 종로구 무악동 83,242,50,,126.9583283,37.575735,5,4,,,,,02-2148-2208
2025,1111057000,특정계층이용시설,회원이용시설,종로노인종합복지관무악센터,서울특별시 종로구 통일로14길 30,서울특별시 종로구 무악동 60-2,800,200,,126.9580458,37.5758297,0,15,,,,,02-2148-2208
2025,1111058000,공공시설,공공청사,교남동주민센터,서울특별시 종로구 송월길 154,서울특별시 종로구 행촌동 211-2,400,40,폭염특보 시 추가운영,126.961963,37.571916,10,1,,Y,,,02-2148-2208
2025,1111058000,특정계층이용시설,회원이용시설,교남경로당,서울특별시 종로구 사직로2길 8,서울특별시 종로구 행촌동 1-39,200,50,,126.9645796,37.572533,5,2,N,N,N,,02-2148-2208
2025,1111058000,특정계층이용시설,회원이용시설,행촌경로당,서울특별시 종로구 인왕산로1길 58,서울특별시 종로구 행촌동 210-33,200,50,,126.9630088,37.5753864,5,2,,,,,02-2148-2208
2025,1111060000,특정계층이용시설,회원이용시설,가회경로당,서울특별시 종로구 북촌로 35,서울특별시 종로구 가회동 156,66,34,,126.9847736,37.5801246,4,1,,Y,,,02-2148-2208
2025,1111060000,특정계층이용시설,회원이용시설,계원경로당,서울특별시 종로구 창덕궁3가길 8,서울특별시 종로구 원서동 135-64,107.9,30,,126.9885166,37.5811279,2,1,,,,,02-2148-2208
2025,1111060000,공공시설,공공청사,가회동주민센터,서울특별시 종로구 북촌로 35,서울특별시 종로구 가회동 156,60,50,폭염특보 시 추가운영,126.9848044,37.5800566,4,1,,Y,,,02-2148-2208
2025,1111060000,특정계층이용시설,회원이용시설,북촌경로당,서울특별시 종로구 북촌로 20-27 ,서울특별시 종로구 재동 54-1,103.1,30,,126.9858728,37.5789115,5,1,N,N,N,,02-2148-2208
2025,1111061500,공공시설,공공청사,구청사,서울특별시 종로구 종로1길 36,서울특별시 종로구 수송동 146-12,82.6,10,폭염특보 시 추가운영,126.9789867,37.573505,0,9,,Y,,,02-2148-2208
2025,1111061500,특정계층이용시설,회원이용시설,서울노인복지센터,서울특별시 종로구 삼일대로 467,서울특별시 종로구 경운동 90-3,"8,000.00",200,,126.9859578,37.5759561,24,79,,,,,02-2148-2208
2025,1111061500,특정계층이용시설,회원이용시설,운니경로당,서울특별시 종로구 삼일대로32길 51,서울특별시 종로구 운니동 60,200,50,,126.9898416,37.5756351,4,2,,,,,02-2148-2208
2025,1111061500,공공시설,공공청사,종로1234가동주민센터,서울특별시 종로구 삼일대로30길 47,서울특별시 종로구 익선동 99,400,40,폭염특보 시 추가운영,126.9902611,37.5744316,10,3,,Y,,,02-2148-2208
2025,1111061500,특정계층이용시설,회원이용시설,우정경로당,서울특별시 종로구 수표로22길 22,서울특별시 종로구 돈의동 162,300,30,,126.9906168,37.5712197,4,2,,,,,02-2148-2208
2025,1111063000,특정계층이용시설,회원이용시설,종로56가경로당,서울특별시 종로구 종로35가길 19,서울특별시 종로구 효제동 173-2,105.6,30,,127.0050402,37.5720368,0,1,,,,,02-2148-2208
2025,1111063000,특정계층이용시설,회원이용시설,충신경로당,서울특별시 종로구 율곡로22나길 21,서울특별시 종로구 충신동 189-2,80,20,,127.0046662,37.5739111,2,2,,,,,02-2148-2208
2025,1111063000,특정계층이용시설,회원이용시설,충신어르신행복충전소,서울특별시 종로구 낙산성곽서길 65-11 ,서울특별시 종로구 충신동 1-223,90,20,,127.0081528,37.5750553,0,1,,,,,02-2148-2208
2025,1111063000,공공시설,공공청사,종로56가동주민센터,서울특별시 종로구 종로35가길 19,서울특별시 종로구 효제동 173-2,80,50,폭염특보 시 추가운영,127.0050427,37.5720325,0,1,,,,,02-2148-2208
2025,1111064000,공공시설,공공청사,이화동주민센터,서울특별시 종로구 이화장길 33,서울특별시 종로구 이화동 149-1,400,50,폭염특보 시 추가운영,127.0043569,37.5769944,5,3,,Y,,,02-2148-2208
2025,1111064000,특정계층이용시설,회원이용시설,종로노인종합복지관,서울특별시 종로구 율곡로19길 17-8 ,서울특별시 종로구 이화동 25-1,"2,188.00",200,,127.0060502,37.5766725,28,30,,,,,02-2148-2208
2025,1111064000,특정계층이용시설,회원이용시설,마로니에경로당,서울특별시 종로구 낙산1길 21,서울특별시 종로구 동숭동 129-77,100.3,30,,127.0057153,37.5811836,4,3,N,N,N,,02-2148-2208
2025,1111064000,특정계층이용시설,회원이용시설,이화경로당,서울특별시 종로구 이화장1나길 15,서울특별시 종로구 이화동 9-264,174.9,30,,127.0067503,37.5777353,4,2,,,,,02-2148-2208
2025,1111064000,특정계층이용시설,회원이용시설,동숭경로당,서울특별시 종로구 동숭4나길 29,서울특별시 종로구 동숭동 6-31,55.4,17,,127.0058222,37.5832493,3,2,,,,,02-2148-2208
2025,1111065000,특정계층이용시설,회원이용시설,명륜3가경로당,서울특별시 종로구 성균관로 50,서울특별시 종로구 명륜1가 70-1,33.8,8,,126.9967148,37.5871177,3,1,,,,,02-2148-2208
2025,1111065000,특정계층이용시설,회원이용시설,혜명경로당,서울특별시 종로구 혜화로9길 24-9 ,서울특별시 종로구 명륜1가 23-9,99,24,,126.9982946,37.5880529,4,4,,,,,02-2148-2208
2025,1111065000,특정계층이용시설,회원이용시설,유림경로당,서울특별시 종로구 성균관로5길 25-13 ,서울특별시 종로구 명륜3가 53-2,178.32,44,,126.996928,37.5844736,2,2,,,,,02-2148-2208
2025,1111065000,특정계층이용시설,회원이용시설,명륜2.4가경로당,서울특별시 종로구 창경궁로26길 7,서울특별시 종로구 명륜4가 206-8,135.48,33,,126.9981471,37.5818846,5,2,,,,,02-2148-2208
2025,1111065000,공공시설,공공청사,혜화동주민센터,서울특별시 종로구 혜화로 12,서울특별시 종로구 혜화동 74-30,400,30,폭염특보 시 추가운영,127.000608,37.5869073,9,1,,Y,,,02-2148-2208
2025,1111067000,공공시설,공공청사,창신1동주민센터,서울특별시 종로구 지봉로 8-6 ,서울특별시 종로구 창신동 401-3,400,30,폭염특보 시 추가운영,127.016374,37.5707222,5,2,,Y,,,02-2148-2208
2025,1111067000,특정계층이용시설,회원이용시설,당고개경로당,서울특별시 종로구 종로53길 29,서울특별시 종로구 창신동 197-17,100,20,,127.0132278,37.5736793,4,1,,Y,,,02-2148-2208
2025,1111067000,특정계층이용시설,회원이용시설,창일경로당,서울특별시 종로구 종로54길 9-23 ,서울특별시 종로구 창신동 328-30,120,30,,127.0148157,37.572238,6,2,,,,,02-2148-2208
2025,1111068000,특정계층이용시설,회원이용시설,창이경로당,서울특별시 종로구 창신길 98,서울특별시 종로구 창신동 594-8,180,45,,127.0105375,37.5759816,4,2,,,,,02-2148-2208
2025,1111068000,특정계층이용시설,회원이용시설,창락경로당,서울특별시 종로구 창신길 191-6 ,서울특별시 종로구 창신동 615-52,130,30,,127.00947,37.5799227,2,2,,,,,02-2148-2208
2025,1111068000,공공시설,공공청사,창신2동주민센터,서울특별시 종로구 창신길 62,서울특별시 종로구 창신동 583-3,120,30,폭염특보 시 추가운영,127.0108835,37.5744319,3,3,,Y,,,02-2148-2208
2025,1111069000,특정계층이용시설,회원이용시설,창삼경로당,서울특별시 종로구 지봉로13길 82,서울특별시 종로구 창신동 23-344,97,41,,127.0124754,37.5772613,18,25,,,,,02-2148-2208
2025,1111069000,공공시설,복지?문화?체육시설,종로종합사회복지관,서울특별시 종로구 지봉로13길 82,서울특별시 종로구 창신동 23-344,"1,421.20",100,,127.0124982,37.5772932,18,25,,,,,02-2148-2208
2025,1111069000,공공시설,공공청사,창신3동주민센터,서울특별시 종로구 지봉로 87,서울특별시 종로구 창신동 23-816,400,50,폭염특보 시 추가운영,127.0146842,37.577933,5,4,,Y,,,02-2148-2208
2025,1111069000,특정계층이용시설,회원이용시설,온고회경로당,서울특별시 종로구 지봉로13길 14,서울특별시 종로구 창신동 산 6-25,280,50,,127.014694,37.578978,6,4,N,N,N,,02-2148-2208
2025,1111070000,특정계층이용시설,회원이용시설,숭인상록경로당,서울특별시 종로구 지봉로 86,서울특별시 종로구 숭인동 55-2,244,31,,127.0155814,37.5778544,4,3,,Y,,,02-2148-2208
2025,1111070000,공공시설,공공청사,숭인1동주민센터,서울특별시 종로구 지봉로 86,서울특별시 종로구 숭인동 55-2,120,30,폭염특보 시 추가운영,127.0156364,37.5778352,4,3,,Y,,,02-2148-2208
2025,1111071000,특정계층이용시설,회원이용시설,흥인경로당,서울특별시 종로구 숭인동길 78-8 ,서울특별시 종로구 숭인동 382,43.9,15,,127.0222011,37.578254,1,1,,Y,,,02-2148-2208
2025,1111071000,공공시설,공공청사,숭인2동주민센터,서울특별시 종로구 종로65길 10,서울특별시 종로구 숭인동 178-167,256.56,43,폭염특보 시 추가운영,127.0199896,37.5748698,4,4,,Y,,,02-2148-2208
2025,1111071000,특정계층이용시설,회원이용시설,숭인2경로당,서울특별시 종로구 종로66가길 35,서울특별시 종로구 숭인동 211-16,258.1,35,,127.0200647,37.5731117,2,1,,Y,,,02-2148-2208
2025,1111071000,특정계층이용시설,회원이용시설,동원경로당,서울특별시 종로구 숭인동2길 28,서울특별시 종로구 숭인동 546,140,35,,127.0202659,37.5783284,4,1,,,,,02-2148-2208
2025,1111071000,특정계층이용시설,회원이용시설,한마음경로당,서울특별시 종로구 숭인동길 78-8 ,서울특별시 종로구 숭인동 382,81,35,,127.0222105,37.5782625,1,1,,Y,,,02-2148-2208
2025,1114052000,공공시설,공공청사,소공동주민센터,서울특별시 중구 남대문로1길 31-5 ,서울특별시 중구 북창동 20-5,136.43,41,특보 시 주말 공휴일 9시~18시 운영,126.977013,37.5624004,6,3,N,N,N,,02-3396-4474
2025,1114054000,공공시설,복지?문화?체육시설,회현체육센터,서울특별시 중구 퇴계로12길 78,서울특별시 중구 회현동1가 115,80,10,,126.9816295,37.5561479,0,2,N,N,N,,02-3396-4474
2025,1114054000,특정계층이용시설,회원이용시설,회현경로당,서울특별시 중구 퇴계로12길 89,서울특별시 중구 회현동1가 147-19,286,40,,126.9819701,37.5558275,4,4,N,N,N,,02-3396-4474
2025,1114054000,공공시설,공공청사,회현동주민센터,서울특별시 중구 퇴계로8길 46,서울특별시 중구 회현동1가 164,885.18,200,특보 시 주말 공휴일 9시~18시 운영,126.9794086,37.5572999,10,4,N,N,N,,02-3396-4474
2025,1114055000,특정계층이용시설,회원이용시설,명동경로당,서울특별시 중구 퇴계로20길 25-26 ,서울특별시 중구 남산동2가 18-5,655.1,80,,126.9863726,37.558995,6,3,N,N,N,,02-3396-4474
2025,1114057000,특정계층이용시설,회원이용시설,필동경로당,서울특별시 중구 필동로 11,서울특별시 중구 필동2가 19-22,201,50,,126.9962394,37.5605451,5,2,N,N,N,,02-3396-4474
2025,1114057000,공공시설,공공청사,필동주민센터,서울특별시 중구 퇴계로36길 42,서울특별시 중구 필동2가 78-2,943.68,30,특보 시 주말 공휴일 9시~18시 운영,126.9955807,37.5601546,0,4,N,N,N,,02-3396-4474
2025,1114058000,특정계층이용시설,회원이용시설,공원장충경로당,서울특별시 중구 동호로 257-8 ,서울특별시 중구 장충동2가 197,425.76,50,,127.003887,37.558511,5,4,N,N,N,,02-3396-4474
2025,1114058000,공공시설,공공청사,장충동주민센터,서울특별시 중구 장충단로8길 22,서울특별시 중구 장충동1가 37-14,60,18,특보 시 주말 공휴일 9시~18시 운영,127.0078704,37.5619114,0,3,N,N,N,,02-3396-4474
2025,1114059000,공공시설,복지?문화?체육시설,중구구민회관,서울특별시 중구 을지로39길 40,서울특별시 중구 을지로6가 18-14,105,11,,127.0061091,37.5686023,0,2,N,N,N,,02-3396-4474
2025,1114059000,공공시설,공공청사,중구청,서울특별시 중구 창경궁로 17,서울특별시 중구 예관동 120-1,50,15,폭염특보 시 21시까지 운영,126.9980697,37.5637821,0,2,N,N,N,,02-3396-4474
2025,1114059000,특정계층이용시설,회원이용시설,묵정경로당,서울특별시 중구 퇴계로45길 32-12 ,서울특별시 중구 충무로5가 21,195.17,50,,126.999734,37.56388,3,1,N,N,N,,02-3396-4474
2025,1114059000,공공시설,공공청사,광희동주민센터,서울특별시 중구 퇴계로 303-9 ,서울특별시 중구 광희동1가 252,225.06,30,특보 시 주말 공휴일 9시~18시 운영,127.004986,37.5644512,4,1,N,N,N,,02-3396-4474
2025,1114059000,특정계층이용시설,회원이용시설,광희경로당,서울특별시 중구 퇴계로 303-9 ,서울특별시 중구 광희동1가 252,254.12,30,,127.0050323,37.5644485,4,1,N,N,N,,02-3396-4474
2025,1114061500,공공시설,복지?문화?체육시설,충무아트센터,서울특별시 중구 퇴계로 387,서울특별시 중구 흥인동 131,,,,127.0147874,37.5658373,0,1,N,N,N,,02-3396-4474
2025,1114061500,공공시설,복지?문화?체육시설,신당누리도서관,서울특별시 중구 다산로33길 3,서울특별시 중구 신당동 300-6,468,117,"일요일, 공휴일 휴관",127.0145763,37.5620989,2,6,N,N,N,,02-3396-4474
2025,1114061500,공공시설,복지?문화?체육시설,충무스포츠센터,서울특별시 중구 퇴계로 387,서울특별시 중구 흥인동 131,130,27,,127.0147874,37.5658373,0,1,N,N,N,,02-3396-4474
2025,1114061500,공공시설,공공청사,신당동주민센터,서울특별시 중구 다산로33길 3,서울특별시 중구 신당동 300-6,550,50,특보 시 주말 공휴일 9시~18시 운영,127.0145515,37.562105,2,6,N,N,N,,02-3396-4474
2025,1114061500,특정계층이용시설,회원이용시설,신당경로당,서울특별시 중구 다산로29길 10,서울특별시 중구 신당동 304-738,662.9,37,,127.0134947,37.5610295,3,6,N,N,N,,02-3396-4474
2025,1114061500,특정계층이용시설,회원이용시설,신일경로당,서울특별시 중구 청구로 121,서울특별시 중구 신당동 393-9,577.7,50,,127.0101967,37.5626078,4,4,N,N,N,,02-3396-4474
2025,1114062500,공공시설,복지?문화?체육시설,다산성곽도서관,서울특별시 중구 동호로17길 173,서울특별시 중구 신당동 432-612,975,243,"월요일, 공휴일 휴관",127.0043243,37.5517319,0,10,N,N,N,,02-3396-4474
2025,1114062500,공공시설,복지?문화?체육시설,가온도서관,서울특별시 중구 동호로14길 18,서울특별시 중구 신당동 425-11,966,241,"월요일, 공휴일 휴관",127.0108465,37.5563698,0,6,N,N,N,,02-3396-4474
2025,1114062500,특정계층이용시설,회원이용시설,장수경로당,서울특별시 중구 동호로11다길 18,서울특별시 중구 신당동 353-47,444,30,,127.007057,37.5519585,4,2,N,N,N,,02-3396-4474
2025,1114062500,공공시설,복지?문화?체육시설,신당종합사회복지관,서울특별시 중구 동호로11길 22,서울특별시 중구 신당동 361-18,97.26,50,,127.0095547,37.5544522,0,4,N,Y,N,,02-3396-4474
2025,1114062500,특정계층이용시설,회원이용시설,다산경로당,서울특별시 중구 동호로12길 97,서울특별시 중구 신당동 386-66,452,30,,127.0120608,37.5595449,5,2,N,N,N,,02-3396-4474
2025,1114062500,특정계층이용시설,회원이용시설,충현경로당,서울특별시 중구 동호로17나길 5-4 ,서울특별시 중구 신당동 828-5,284,30,,127.0056789,37.5544732,3,3,N,N,N,,02-3396-4474
2025,1114062500,공공시설,공공청사,다산동주민센터,서울특별시 중구 동호로15길 50,서울특별시 중구 신당동 432-24,85,30,특보 시 주말 공휴일 9시~18시 운영,127.0083084,37.5542653,1,2,N,N,N,,02-3396-4474
2025,1114063500,공공시설,복지?문화?체육시설,남산타운어린이도서관,서울특별시 중구 다산로 32,서울특별시 중구 신당동 844-1,274,68,"평  일 9:00~22:00(1,3,5주 월요일 휴관) 토요일 9:00~18:00 일요일 9:00~18:00 (2,4주 일요일, 공휴일 휴관)",127.0119,37.5496,0,5,N,N,N,,02-3396-4474
2025,1114063500,공공시설,복지?문화?체육시설,약수동커뮤니티센터(악수터),서울특별시 중구 다산로 94,서울특별시 중구 신당동 366-14,45,11,,127.0090792,37.5526038,0,3,N,N,N,,02-3396-4474
2025,1114063500,공공시설,공공청사,"중구시설관리공단,2층출입구휴게공간",서울특별시 중구 동호로8다길 22,서울특별시 중구 신당동 349-234,60,10,,127.0133663,37.5522,0,1,N,N,N,,02-3396-4474
2025,1114063500,특정계층이용시설,회원이용시설,약수노인종합복지관,서울특별시 중구 다산로6길 11,서울특별시 중구 신당동 366-18,76,20,,127.0092108,37.5524799,0,2,N,Y,N,,02-3396-4474
2025,1114063500,공공시설,공공청사,약수동주민센터,서울특별시 중구 다산로 92,서울특별시 중구 신당동 366-15,"1,317.00",200,특보 시 주말 공휴일 9시~18시 운영,127.0089583,37.5524756,6,26,N,N,N,,02-3396-4474
2025,1114063500,특정계층이용시설,회원이용시설,동호경로당,서울특별시 중구 동호로8길 42-22 ,서울특별시 중구 신당동 349-120,144,60,,127.013025,37.5524119,6,2,N,N,N,,02-3396-4474
2025,1114063500,특정계층이용시설,회원이용시설,약수경로당,서울특별시 중구 다산로10길 10-12 ,서울특별시 중구 신당동 368-80,177,70,,127.0101447,37.5531516,6,2,N,N,N,,02-3396-4474
2025,1114064500,특정계층이용시설,회원이용시설,삼성경로당,서울특별시 중구 청구로1길 23,서울특별시 중구 신당동 843,240,40,,127.0178868,37.5581449,4,3,N,N,N,,02-3396-4474
2025,1114064500,특정계층이용시설,회원이용시설,대양경로당,서울특별시 중구 동호로10길 30,서울특별시 중구 신당동 842,96.36,30,,127.0147545,37.5548532,4,3,N,N,N,,02-3396-4474
2025,1114064500,특정계층이용시설,회원이용시설,청송경로당,서울특별시 중구 청구로1길 23,서울특별시 중구 신당동 843-1,83.85,30,,127.0180876,37.5595366,3,1,N,N,N,,02-3396-4474
2025,1114064500,공공시설,공공청사,청구동주민센터,서울특별시 중구 청구로3길 55,서울특별시 중구 신당동 333-17,50,20,특보 시 주말 공휴일 9시~18시 운영,127.0146791,37.5571022,2,2,N,N,N,,02-3396-4474
2025,1114064500,특정계층이용시설,회원이용시설,청구경로당,서울특별시 중구 청구로3길 69,서울특별시 중구 신당동 333-36,130.64,50,,127.0143731,37.556536,2,2,N,N,N,,02-3396-4474
2025,1114065000,특정계층이용시설,회원이용시설,신당5동경로당,서울특별시 중구 다산로42길 53,서울특별시 중구 신당동 132-10,71.14,40,,127.0192147,37.5643603,4,2,N,N,N,,02-3396-4474
2025,1114065000,공공시설,공공청사,신당5동주민센터,서울특별시 중구 다산로44길 85,서울특별시 중구 신당동 150-7,251.3,30,특보 시 주말 공휴일 9시~18시 운영,127.0218667,37.5651172,4,4,N,N,N,,02-3396-4474
2025,1114065000,공공시설,복지?문화?체육시설,유락종합사회복지관,서울특별시 중구 퇴계로 460,서울특별시 중구 신당동 160-2,76,30,,127.022827,37.5651315,0,2,N,Y,N,,02-3396-4474
2025,1114065000,특정계층이용시설,회원이용시설,유락경로당,서울특별시 중구 퇴계로90길 42,서울특별시 중구 신당동 155-10,71.26,40,,127.0216395,37.5634445,2,2,N,N,N,,02-3396-4474
2025,1114066500,공공시설,복지?문화?체육시설,어울림도서관,서울특별시 중구 다산로38길 66-35 ,서울특별시 중구 신당동 52-164,299,74,"월요일, 공휴일 휴관",127.0189662,37.5617067,0,6,N,N,N,,02-3396-4474
2025,1114066500,특정계층이용시설,회원이용시설,동화경로당,서울특별시 중구 청구로 64,서울특별시 중구 신당동 852,105,30,,127.0166912,37.5604892,5,3,N,N,N,,02-3396-4474
2025,1114066500,특정계층이용시설,회원이용시설,청구e편한세상경로당,서울특별시 중구 청구로 64,서울특별시 중구 신당동 852,128,50,,127.0166611,37.5604011,5,3,N,N,N,,02-3396-4474
2025,1114066500,특정계층이용시설,회원이용시설,현대아파트경로당,서울특별시 중구 다산로36길 109,서울특별시 중구 신당동 840,102,40,,127.0213758,37.5599543,2,2,Y,N,N,,02-3396-4474
2025,1114066500,특정계층이용시설,회원이용시설,푸르지오경로당,서울특별시 중구 다산로36길 110,서울특별시 중구 신당동 850,119,50,,127.0195265,37.5592014,3,2,N,N,N,,02-3396-4474
2025,1114066500,공공시설,공공청사,동화동주민센터,서울특별시 중구 다산로36길 100,서울특별시 중구 신당동 850,100,50,,127.019399,37.5599648,3,2,N,N,N,,02-3396-4474
2025,1114066500,특정계층이용시설,회원이용시설,동화동구립경로당,서울특별시 중구 퇴계로80길 52,서울특별시 중구 신당동 50-12,138,70,,127.0172988,37.5632367,6,4,N,N,N,,02-3396-4474
2025,1114067000,특정계층이용시설,회원이용시설,SH황학롯데캐슬경로당,서울특별시 중구 청계천로 400,서울특별시 중구 황학동 2545,264.46,30,,127.0212143,37.5710252,9,7,N,N,N,,02-3396-4474
2025,1114067000,공공시설,공공청사,황학동주민센터,서울특별시 중구 난계로11길 52,서울특별시 중구 황학동 1010,330,30,특보 시 주말 공휴일 9시~18시 운영,127.0213668,37.5674378,2,6,N,N,N,,02-3396-4474
2025,1114067000,특정계층이용시설,회원이용시설,황중경로당,서울특별시 중구 난계로11길 37,서울특별시 중구 황학동 2525,257.04,35,,127.0217758,37.5666637,5,3,N,N,N,,02-3396-4474
2025,1114068000,공공시설,복지?문화?체육시설,손기정문화도서관,서울특별시 중구 손기정로 101,서울특별시 중구 만리동2가 6-1,,,"매주 월, 법정공휴일 휴무",126.964559,37.5559233,0,5,N,N,N,,02-3396-4474
2025,1114068000,공공시설,복지?문화?체육시설,손기정문화체육센터,서울특별시 중구 손기정로 101,서울특별시 중구 만리동2가 6-1,"1,271.00",73,,126.964559,37.5559233,0,5,N,N,N,,02-3396-4474
2025,1114068000,공공시설,복지?문화?체육시설,손기정어린이도서관,서울특별시 중구 손기정로 101,서울특별시 중구 만리동2가 6-1,445,111,"월요일, 공휴일 휴관",126.9647557,37.5551649,0,5,N,N,N,,02-3396-4474
2025,1114068000,특정계층이용시설,회원이용시설,중림경로당,서울특별시 중구 손기정로 101-5 ,서울특별시 중구 만리동1가 57-36,119.81,30,,126.9660121,37.5568741,0,0,,,,,02-3396-4474
2025,1114068000,특정계층이용시설,회원이용시설,충정경로당(임대),서울특별시 중구 중림로4길 41,서울특별시 중구 중림동 201,69,30,,126.9646435,37.5571804,3,2,N,N,N,,02-3396-4474
2025,1114068000,공공시설,복지?문화?체육시설,중림종합사회복지관,서울특별시 중구 서소문로6길 16,서울특별시 중구 중림동 155-1,30,30,,126.9660708,37.5594606,1,3,N,Y,N,,02-3396-4474
2025,1114068000,특정계층이용시설,회원이용시설,삼성사이버경로당,서울특별시 중구 중림로 10,서울특별시 중구 중림동 200,227,70,,126.9652972,37.5582144,7,2,N,N,N,,02-3396-4474
2025,1114068000,공공시설,공공청사,중림동주민센터,서울특별시 중구 만리재로 175,서울특별시 중구 만리동2가 273,49.54,30,특보 시 주말 공휴일 9시~18시 운영,126.964457,37.554846,0,8,N,N,N,,02-3396-4474
2025,1117051000,특정계층이용시설,회원이용시설,후암미주아파트경로당,서울특별시 용산구 후암로 71-1 (라이프미주아파트 4동),서울특별시 용산구 후암동 423-1,,30,,126.975513,37.551465,3,1,N,N,N,,02-2199-7002
2025,1117051000,공공시설,공공청사,후암동주민센터,서울특별시 용산구 후암로 32-6 ,서울특별시 용산구 후암동 244-109,658,80,,126.9781637,37.5486911,10,5,Y,Y,N,,02-2199-7002
2025,1117051000,특정계층이용시설,회원이용시설,양짓말경로당,서울특별시 용산구 후암로13가길 25,서울특별시 용산구 후암동 239-1,340,100,,126.976385,37.5481297,4,2,Y,Y,N,,02-2199-7002
2025,1117051000,특정계층이용시설,회원이용시설,활터골경로당,서울특별시 용산구 신흥로20길 55,서울특별시 용산구 후암동 406-43,77,40,,126.983983,37.5478678,3,2,N,N,N,,02-2199-7002
2025,1117052000,공공시설,공공청사,용산2가동주민센터,서울특별시 용산구 신흥로 90,서울특별시 용산구 용산동2가 11-13,392,100,,126.985461,37.5459239,4,2,Y,Y,N,,02-2199-7002
2025,1117052000,특정계층이용시설,회원이용시설,용암경로당,서울특별시 용산구 신흥로3가길 21-7 ,서울특별시 용산구 용산동2가 5-66,314,90,,126.984648,37.5410043,5,6,N,N,N,,02-2199-7002
2025,1117052000,특정계층이용시설,회원이용시설,용산2가경로당,서울특별시 용산구 신흥로16길 18,서울특별시 용산구 용산동2가 25,152,75,,126.987555,37.5448429,4,2,N,N,N,,02-2199-7002
2025,1117052000,특정계층이용시설,회원이용시설,신흥경로당,서울특별시 용산구 신흥로25가길 2,서울특별시 용산구 용산동2가 1-136,132,60,,126.983238,37.544511,2,4,N,N,N,,02-2199-7002
2025,1117053000,공공시설,공공청사,남영동주민센터,서울특별시 용산구 두텁바위로 25,서울특별시 용산구 갈월동 51-19,264,66,,126.9748099,37.5457462,1,1,N,Y,N,,02-2199-7002
2025,1117053000,특정계층이용시설,회원이용시설,갈월경로당,서울특별시 용산구 두텁바위로1길 13,서울특별시 용산구 갈월동 23-1,167,41,,126.973104,37.5456527,3,1,N,N,N,,02-2199-7002
2025,1117053000,특정계층이용시설,회원이용시설,남영경로당,서울특별시 용산구 한강대로72길 21-15 ,서울특별시 용산구 남영동 108-3,136,40,,126.9743518,37.5413116,3,2,N,N,N,,02-2199-7002
2025,1117052000,특정계층이용시설,회원이용시설,동자경로당,서울특별시 용산구 한강대로104길 30-4 ,서울특별시 용산구 동자동 24-11,198,40,,126.973845,37.550116,4,2,N,N,N,,02-2199-7002
2025,1117053000,공공시설,복지?문화?체육시설,갈월종합사회복지관,서울특별시 용산구 두텁바위로 25,서울특별시 용산구 갈월동 51-19,115,17,*특보 발령 시 연장운영(주말 13:00~17:00),126.9747859,37.5457796,1,1,N,Y,N,,02-2199-7002
2025,1117055500,공공시설,공공청사,청파동주민센터,서울특별시 용산구 청파로49길 6,서울특별시 용산구 청파동2가 91-1,"2,136.00",50,,126.969981,37.5453261,0,1,Y,Y,N,,02-2199-7002
2025,1117055500,특정계층이용시설,회원이용시설,구립청파노인복지관,서울특별시 용산구 청파로83길 26,서울특별시 용산구 서계동 33-49,290,50,*특보 발령 시 연장운영(주말 13:00~17:00),126.967693,37.5519748,2,1,,,,,02-2199-7002
2025,1117055500,특정계층이용시설,회원이용시설,청파2동경로당,서울특별시 용산구 청파로49길 34,서울특별시 용산구 청파동2가 35-20,203,30,,126.968465,37.5454608,3,1,Y,N,N,,02-2199-7002
2025,1117055500,특정계층이용시설,회원이용시설,서계제1경로당,서울특별시 용산구 효창원로104길 7,서울특별시 용산구 서계동 259-2,55,20,,126.964219,37.5508025,5,2,Y,Y,N,,02-2199-7002
2025,1117055500,특정계층이용시설,회원이용시설,서계경로당,서울특별시 용산구 만리재로28길 5-22 ,서울특별시 용산구 서계동 238-49,299,50,,126.9653096,37.5531567,4,2,N,N,N,,02-2199-7002
2025,1117056000,공공시설,복지?문화?체육시설,용산꿈나무종합타운,서울특별시 용산구 백범로 329,서울특별시 용산구 원효로1가 25,30,10,,126.9652971,37.5387779,6,2,Y,Y,N,,02-2199-7002
2025,1117056000,특정계층이용시설,회원이용시설,원일경로당,서울특별시 용산구 원효로67길 13,서울특별시 용산구 원효로2가 8-4,114,30,,126.963864,37.5375578,5,2,N,N,N,,02-2199-7002
2025,1117056000,공공시설,공공청사,원효로1동주민센터,서울특별시 용산구 백범로 350,서울특별시 용산구 문배동 19-2,400,80,,126.9676862,37.5372513,8,3,Y,Y,N,,02-2199-7002
2025,1117057000,특정계층이용시설,회원이용시설,산천아파트경로당,"서울특별시 용산구 새창로8길 157 (한강타운 어린이집,경로당)",서울특별시 용산구 산천동 204,,27,,126.949965,37.535912,6,1,N,N,N,,02-2199-7002
2025,1117057000,특정계층이용시설,회원이용시설,리버힐삼성임대아파트경로당,서울특별시 용산구 효창원로13길 7,서울특별시 용산구 산천동 194,129,20,,126.9520895,37.5356934,2,3,N,N,N,,02-2199-7002
2025,1117057000,특정계층이용시설,회원이용시설,청심경로당,서울특별시 용산구 효창원로 6,서울특별시 용산구 원효로4가 136-1,132,20,,126.950617,37.5338227,5,2,N,N,N,,02-2199-7002
2025,1117057000,특정계층이용시설,회원이용시설,원효로경로당,서울특별시 용산구 원효로41가길 14-19 ,서울특별시 용산구 원효로3가 1-139,75,20,,126.956884,37.5347983,4,2,N,N,N,,02-2199-7002
2025,1117057000,공공시설,공공청사,원효2동주민센터,서울특별시 용산구 효창원로8길 3,서울특별시 용산구 산천동 81-1,998,20,,126.9514952,37.5343838,10,5,Y,Y,N,,02-2199-7002
2025,1117058000,특정계층이용시설,회원이용시설,효창파크푸르지오아파트경로당,서울특별시 용산구 백범로 260,서울특별시 용산구 효창동 274,,,,126.957877,37.54057,2,1,N,N,N,,02-2199-7002
2025,1117058000,특정계층이용시설,회원이용시설,효창한신아파트경로당,서울특별시 용산구 백범로45길 9-11 (한신아파트 한신아파트경로당),서울특별시 용산구 효창동 5-145,,20,,126.957638,37.541907,2,1,N,N,N,,02-2199-7002
2025,1117058000,특정계층이용시설,회원이용시설,효창동제1경로당,서울특별시 용산구 임정로11길 9,서울특별시 용산구 효창동 5-712,130,32,,126.9585379,37.5428085,4,2,Y,N,N,,02-2199-7002
2025,1117058000,공공시설,공공청사,효창동주민센터,서울특별시 용산구 효창원로 161,서울특별시 용산구 효창동 255-5,144,36,,126.9618506,37.5424679,10,1,Y,Y,N,,02-2199-7002
2025,1117059000,특정계층이용시설,회원이용시설,도원삼성아파트제2경로당,서울특별시 용산구 새창로8길 7,서울특별시 용산구 도원동 25,103,30,,126.9563989,37.5397345,4,2,N,N,N,,02-2199-7002
2025,1117059000,특정계층이용시설,회원이용시설,송학당경로당,서울특별시 용산구 효창원로37라길 11,서울특별시 용산구 용문동 38-206,163,50,,126.9581749,37.537888,4,2,Y,N,N,,02-2199-7002
2025,1117059000,공공시설,공공청사,용문동주민센터,서울특별시 용산구 새창로12길 13,서울특별시 용산구 도원동 4-5,"3,989.00",20,,126.9575324,37.5389418,7,4,Y,Y,N,,02-2199-7002
2025,1117062500,특정계층이용시설,회원이용시설,용산파크이편한세상아파트경로당,서울특별시 용산구 한강대로53길 16,서울특별시 용산구 한강로2가 417,,,,126.970765,37.534025,2,2,N,N,N,,02-2199-7002
2025,1117062500,특정계층이용시설,회원이용시설,용산파크자이경로당,서울특별시 용산구 한강대로 205,서울특별시 용산구 한강로1가 50-1,,,,126.972683,37.53662,2,2,N,N,N,,02-2199-7002
2025,1117062500,특정계층이용시설,회원이용시설,한강우람경로당,서울특별시 용산구 한강대로53길 1-8 ,서울특별시 용산구 한강로2가 296-1,66,33,,126.9710246,37.5330307,3,1,N,N,N,,02-2199-7006
2025,1117062500,특정계층이용시설,회원이용시설,삼오경로당,서울특별시 용산구 한강대로 60,서울특별시 용산구 한강로3가 44-6,97,24,,126.9652337,37.5260071,2,2,N,Y,N,,02-2199-7002
2025,1117062500,특정계층이용시설,회원이용시설,한강로3가경로당,서울특별시 용산구 한강대로7길 17-16 ,서울특별시 용산구 한강로3가 40-1007,106,26,,126.9604,37.5261,3,2,N,N,N,,02-2199-7002
2025,1117062500,특정계층이용시설,회원이용시설,한강로2가경로당,서울특별시 용산구 서빙고로20길 19,서울특별시 용산구 한강로3가 65-392,105,46,,126.967739,37.5235845,2,1,N,N,N,,02-2199-7002
2025,1117062500,공공시설,공공청사,한강로동주민센터,,서울특별시 용산구 한강로2가 425,282,70,,126.9692302,37.5281193,10,1,Y,Y,N,,02-2199-7002
2025,1117062500,특정계층이용시설,회원이용시설,삼각지경로당,서울특별시 용산구 이태원로2길 5,서울특별시 용산구 용산동3가 1-6,66,46,,126.975315,37.5346957,3,2,N,N,N,,02-2199-7002
2025,1117063000,특정계층이용시설,회원이용시설,이촌1동2경로당,서울특별시 용산구 이촌로75길 12-12 ,서울특별시 용산구 이촌동 301-147,178,30,,126.9746613,37.5202504,4,3,Y,Y,N,,02-2199-7002
2025,1117063000,공공시설,공공청사,이촌1동주민센터,서울특별시 용산구 이촌로71길 24,서울특별시 용산구 이촌동 301-82,581,30,,126.973057,37.5211982,13,1,Y,Y,N,,02-2199-7002
2025,1117064000,특정계층이용시설,회원이용시설,이촌2동할머니경로당,서울특별시 용산구 이촌로2가길 122,서울특별시 용산구 이촌동 395,69,20,,126.9547534,37.525422,2,1,N,N,N,,02-2199-7002
2025,1117064000,공공시설,공공청사,이촌2동주민센터,서울특별시 용산구 이촌로18길 20,서울특별시 용산구 이촌동 206-2,"3,183.00",100,,126.954672,37.5262199,5,1,Y,Y,N,,02-2199-7002
2025,1117065000,특정계층이용시설,회원이용시설,이태원남부경로당,서울특별시 용산구 이태원로17길 12 (대한노인회영산지부),서울특별시 용산구 이태원동 168-2,,38,,126.991495,37.534899,2,1,N,N,N,,02-2199-7002
2025,1117065000,특정계층이용시설,회원이용시설,이태원1동경로당,서울특별시 용산구 이태원로23길 19,서울특별시 용산구 이태원동 116-11,145,80,주말 연장쉼터는 여자방만 운영,126.9924493,37.5352909,3,2,N,N,N,,02-2199-7002
2025,1117065000,공공시설,공공청사,이태원1동주민센터,서울특별시 용산구 보광로 104-6 ,서울특별시 용산구 이태원동 100-3,804,80,,126.9950081,37.5324757,5,2,Y,Y,N,,02-2199-7002
2025,1117066000,특정계층이용시설,회원이용시설,이태원중부경로당,서울특별시 용산구 회나무로6길 11-8,서울특별시 용산구 이태원동 286-1,,14,,126.989313,37.538439,4,1,N,N,N,,02-2199-7002
2025,1117066000,특정계층이용시설,회원이용시설,조양경로당,서울특별시 용산구 녹사평대로40나길 38-3 ,서울특별시 용산구 이태원동 392-4,158,60,"주말 연장쉼터의 경우, 남자방은 11~15시, 여자방은 13~17시 운영",126.988892,37.5363017,6,2,Y,Y,,,02-2199-7002
2025,1117066000,공공시설,공공청사,이태원2동주민센터,서울특별시 용산구 회나무로13길 58,서울특별시 용산구 이태원동 255-54,558,50,,126.990147,37.5419222,3,1,Y,Y,N,,02-2199-7002
2025,1117066000,특정계층이용시설,회원이용시설,이태원북부경로당,서울특별시 용산구 회나무로13길 32,서울특별시 용산구 이태원동 255-2,230,80,,126.98975,37.5407394,8,2,N,N,N,,02-2199-7002
2025,1117068500,특정계층이용시설,회원이용시설,한남리버탑아파트경로당,"서울특별시 용산구 독서당로6길 16 (리버탑아파트 한남리버탑아파트경로당,관리사무소)",서울특별시 용산구 한남동 802,,59,,127.008169,37.529729,2,1,N,N,N,,02-2199-7002
2025,1117068500,특정계층이용시설,회원이용시설,한남동제1경로당,서울특별시 용산구 한남대로 48-7 ,서울특별시 용산구 한남동 257-9,132,40,주말 연장쉼터는 여자방(2층)만 운영,127.008409,37.5333378,5,2,N,Y,N,,02-2199-7002
2025,1117068500,특정계층이용시설,회원이용시설,한일경로당,서울특별시 용산구 이태원로54길 68-4 ,서울특별시 용산구 한남동 684-15,161,40,,127.000862,37.5354193,3,1,N,N,N,,02-2199-7002
2025,1117068500,특정계층이용시설,회원이용시설,한남시범아파트경로당,서울특별시 용산구 독서당로34길 22,서울특별시 용산구 한남동 1-349,65,30,,127.012347,37.539158,2,1,N,N,N,,02-2199-7002
2025,1117068500,공공시설,공공청사,한남동주민센터,서울특별시 용산구 대사관로5길 1,서울특별시 용산구 한남동 685-43,"2,343.00",50,,127.0004574,37.5345375,3,5,Y,Y,N,,02-2199-7002
2025,1117068500,특정계층이용시설,회원이용시설,매봉경로당,서울특별시 용산구 한남대로40길 32,서울특별시 용산구 한남동 726-250,233,40,,127.0037308,37.5432775,4,2,N,N,N,,02-2199-7002
2025,1117068500,특정계층이용시설,회원이용시설,시립용산노인종합복지관,서울특별시 용산구 독서당로11길 16,서울특별시 용산구 한남동 108,151,22,*특보 발령 시 연장운영(주말 13:00~17:00),127.0064579,37.531341,0,1,N,Y,N,,02-2199-7002
2025,1117069000,특정계층이용시설,회원이용시설,서빙고할머니경로당,서울특별시 용산구 녹사평대로14길 8,서울특별시 용산구 서빙고동 50-1,69,20,,126.9938025,37.523381,3,1,N,N,N,,02-2199-7002
2025,1117069000,특정계층이용시설,회원이용시설,신동아아파트경로당(서빙고),서울특별시 용산구 이촌로 347,서울특별시 용산구 서빙고동 241-21,83,20,,126.98739,37.5180923,2,1,N,N,N,,02-2199-7002
2025,1117069000,특정계층이용시설,회원이용시설,서빙고할아버지경로당,서울특별시 용산구 서빙고로59길 3-20 ,서울특별시 용산구 서빙고동 195-10,69,30,,126.9923072,37.5205369,6,1,N,N,N,,02-2199-7002
2025,1117069000,공공시설,공공청사,서빙고동주민센터,서울특별시 용산구 서빙고로 279,서울특별시 용산구 서빙고동 134,325,50,,126.994595,37.5204716,15,3,Y,Y,N,,02-2199-7002
2025,1117069000,특정계층이용시설,회원이용시설,동빙고경로당,서울특별시 용산구 서빙고로75가길 23,서울특별시 용산구 동빙고동 65,285,80,,126.9963558,37.522893,3,2,N,N,N,,02-2199-7002
2025,1117070000,특정계층이용시설,회원이용시설,보광신동아아파트경로당,서울특별시 용산구 보광로 14 (신동아아파트),서울특별시 용산구 보광동 448,,25,,127.001933,37.525819,2,2,N,N,N,,02-2199-7002
2025,1117070000,특정계층이용시설,회원이용시설,보광경로당,서울특별시 용산구 장문로19길 1 (보광경로당),서울특별시 용산구 보광동 385,,20,,126.997587,37.526176,1,1,N,N,N,,02-2199-7002
2025,1117070000,특정계층이용시설,회원이용시설,새로나경로당,서울특별시 용산구 보광로32길 1,서울특별시 용산구 보광동 242-4,139,20,,126.998072,37.5293233,6,2,Y,Y,N,,02-2199-7002
2025,1117070000,특정계층이용시설,회원이용시설,보광제3경로당,서울특별시 용산구 보광로32길 1,서울특별시 용산구 보광동 242-4,102.3,30,,126.9980636,37.529314,6,2,Y,Y,N,,02-2199-7002
2025,1117070000,특정계층이용시설,회원이용시설,보광제1경로당,서울특별시 용산구 보광로7길 9,서울특별시 용산구 보광동 216-67,89.88,25,,126.998668,37.5256075,2,2,Y,Y,N,,02-2199-7002
2025,1117070000,공공시설,공공청사,보광동주민센터(북카페),서울특별시 용산구 장문로 95,서울특별시 용산구 보광동 217-32,150,30,,127.0000867,37.526268,1,1,Y,Y,N,,02-2199-7002
2025,1117070000,특정계층이용시설,회원이용시설,우사단경로당,서울특별시 용산구 우사단로4길 30,서울특별시 용산구 보광동 265-545,69.3,53,,126.9983917,37.5313787,3,2,N,N,N,,02-2199-7002
2025,1117070000,특정계층이용시설,회원이용시설,보광종점경로당,서울특별시 용산구 장문로 95,서울특별시 용산구 보광동 217-32,68.3,32,,127.000082,37.5262472,1,1,Y,Y,N,,02-2199-7002
2025,1120052000,특정계층이용시설,회원이용시설,왕십리자이(아)경로당,서울특별시 성동구 난계로 100 (왕십리자이 101동),서울특별시 성동구 하왕십리동 1071,224,50,,127.024733,37.560092,2,5,N,N,N,,02-2286-5868
2025,1120052000,특정계층이용시설,회원이용시설,금호베스트빌(아)제1경로당,서울특별시 성동구 난계로 114-31 (금호 베스트빌 104동),서울특별시 성동구 하왕십리동 1052,113,28,,127.025929,37.561444,1,2,N,N,N,,02-2286-5868
2025,1120052000,특정계층이용시설,회원이용시설,금호베스트빌(아)모아경로당,서울특별시 성동구 난계로 114-31 (금호 베스트빌 104동),서울특별시 성동구 하왕십리동 1052,48.29,12,,127.025897,37.561623,1,2,N,N,N,,02-2286-5868
2025,1120052000,특정계층이용시설,회원이용시설,무학현대(아)경로당,서울특별시 성동구 무학봉길 49 (무학현대아파트 노인정),서울특별시 성동구 하왕십리동 992,86.42,21,,127.027979,37.561061,2,1,N,N,N,,02-2286-5868
2025,1120052000,특정계층이용시설,회원이용시설,하왕극동미라주(아)경로당,서울특별시 성동구 난계로 73,서울특별시 성동구 하왕십리동 1058,89.81,22,,127.023116,37.558518,3,2,N,N,N,,02-2286-5868
2025,1120052000,특정계층이용시설,회원이용시설,풍림경로당,서울특별시 성동구 난계로 84 (왕십리풍림아이원 115동),서울특별시 성동구 하왕십리동 1061,133.2,33,,127.025283,37.558731,4,2,N,N,N,,02-2286-5868
2025,1120052000,특정계층이용시설,회원이용시설,한신무학(아)경로당,서울특별시 성동구 왕십리로31나길 18 (한신무학아파트 6동),서울특별시 성동구 하왕십리동 990,40,10,,127.028309,37.562448,2,2,N,N,N,,02-2286-5868
2025,1120052000,특정계층이용시설,회원이용시설,무학경로당,서울특별시 성동구 왕십리로31길 29,서울특별시 성동구 하왕십리동 990-7,97.5,24,,127.027357,37.561712,4,2,N,N,N,,02-2286-5868
2025,1120052000,특정계층이용시설,회원이용시설,안정경로당,서울특별시 성동구 무학봉12길 3-11 ,서울특별시 성동구 하왕십리동 980-5,40,10,,127.029587,37.5604005,2,1,N,N,N,,02-2286-5868
2025,1120052000,특정계층이용시설,회원이용시설,왕십리제일경로당,서울특별시 성동구 왕십리로31가길 12,서울특별시 성동구 하왕십리동 890-98,103.8,26,,127.028604,37.5639416,2,1,N,N,N,,02-2286-5868
2025,1120052000,특정계층이용시설,회원이용시설,왕십리제2경로당,서울특별시 성동구 무학봉길 40,서울특별시 성동구 하왕십리동 1015-11,45.2,11,,127.027244,37.5602749,2,1,N,N,N,,02-2286-5868
2025,1120052000,특정계층이용시설,회원이용시설,일심경로당,서울특별시 성동구 무학봉15라길 4,서울특별시 성동구 하왕십리동 989-49,42.9,10,,127.030426,37.5626708,2,1,N,N,N,,02-2286-5868
2025,1120052000,특정계층이용시설,회원이용시설,무학봉경로당(행당1동관리),서울특별시 성동구 무학봉18길 4-2 ,서울특별시 성동구 하왕십리동 975-13,49.5,15,,127.031761,37.5611838,4,2,N,N,N,,02-2286-5868
2025,1120053500,특정계층이용시설,회원이용시설,청계벽산(아)홍익동경로당,서울특별시 성동구 무학로 50 (벽산아파트 관리사무소),서울특별시 성동구 하왕십리동 258,175,53,,127.032558,37.569291,7,2,N,N,N,,02-2286-5868
2025,1120053500,특정계층이용시설,회원이용시설,청계대주(아)경로당,서울특별시 성동구 무학로12길 11 (청계대주파크빌 101동),서울특별시 성동구 홍익동 53,100,30,,127.031559,37.567312,1,2,N,N,N,,02-2286-5868
2025,1120053500,특정계층이용시설,회원이용시설,도선장수경로당,서울특별시 성동구 무학로6길 50 (성동삼성쉐르빌 103동),서울특별시 성동구 도선동 69,77,23,,127.034907,37.564448,0,2,N,N,N,,02-2286-5868
2025,1120053500,특정계층이용시설,회원이용시설,미소경로당,서울특별시 성동구 마장로 137 (텐즈힐 202동),서울특별시 성동구 상왕십리동 811,143,43,,127.024038,37.570093,0,4,N,N,N,,02-2286-5868
2025,1120053500,특정계층이용시설,회원이용시설,희망경로당,서울특별시 성동구 마장로 137,서울특별시 성동구 상왕십리동 811,112.1,33,,127.025543,37.568966,0,4,N,N,N,,02-2286-5868
2025,1120053500,특정계층이용시설,회원이용시설,텐즈힐열린경로당,서울특별시 성동구 무학로 33 (텐즈힐 115동),서울특별시 성동구 하왕십리동 1066,249,75,,127.028931,37.567601,3,4,N,N,N,,02-2286-5868
2025,1120053500,특정계층이용시설,회원이용시설,텐즈힐행복경로당,서울특별시 성동구 무학로 33,서울특별시 성동구 하왕십리동 1066,115.4,34,,127.026508,37.569633,3,4,N,N,N,,02-2286-5868
2025,1120053500,특정계층이용시설,회원이용시설,센트라스(아)제1경로당,서울특별시 성동구 왕십리로 410 (센트라스 101동),서울특별시 성동구 상왕십리동 816,200.4,10,,127.025549,37.567219,0,4,N,N,N,,02-2286-5868
2025,1120053500,특정계층이용시설,회원이용시설,청계벽산(아)경로당,서울특별시 성동구 무학로 50 (벽산아파트 관리사무소),서울특별시 성동구 하왕십리동 258,189,57,,127.031081,37.568751,7,2,N,N,N,,02-2286-5868
2025,1120053500,공공시설,복지?문화?체육시설,청계도서관,서울특별시 성동구 마장로 141,서울특별시 성동구 상왕십리동 813,100,30,화~일 09:00~18:00  8월15일(금) 휴관,127.0255475,37.5678769,5,10,N,Y,N,,02-2286-5868
2025,1120053500,특정계층이용시설,회원이용시설,왕십리도선동노인복지관,서울특별시 성동구 마장로 141,서울특별시 성동구 상왕십리동 813,515,9,"(연장쉼터 운영) 평일: 18시~21시, 주말 및 공휴일: 09시~18시",127.0254342,37.567814,5,10,N,Y,N,,02-2286-5868
2025,1120053500,공공시설,공공청사,왕십리도선동주민센터,서울특별시 성동구 마장로 141,서울특별시 성동구 상왕십리동 813,38.88,10,,127.025458,37.5678526,5,10,N,Y,N,,02-2286-5868
2025,1120053500,특정계층이용시설,회원이용시설,도선경로당,서울특별시 성동구 무학로6길 9,서울특별시 성동구 홍익동 373-1,72.3,21,,127.031106,37.5655178,2,2,N,N,N,,02-2286-5868
2025,1120054000,특정계층이용시설,회원이용시설,왕십리삼성(아)경로당,서울특별시 성동구 마장로 271 (왕십리삼성아파트),서울특별시 성동구 마장동 817,68,20,,127.040625,37.566011,3,1,N,N,N,,02-2286-5868
2025,1159056000,특정계층이용시설,회원이용시설,동아아파트경로당,서울특별시 동작구 양녕로23길 43,서울특별시 동작구 상도동 409,29.3,8,,126.940039,37.496281,1,1,N,N,N,,-
2025,1159056000,특정계층이용시설,회원이용시설,경향렉스빌아파트경로당,서울특별시 동작구 양녕로23길 9,서울특별시 동작구 상도동 445,112,20,,126.941867,37.495206,1,1,N,N,N,,-
2025,1159056000,공공시설,복지?문화?체육시설,약수도서관,서울특별시 동작구 양녕로22바길 64,서울특별시 동작구 상도동 211-77,598.88,47,,126.9473854,37.4979112,1,3,N,N,N,,-
2025,1159056000,공공시설,공공청사,상도4동주민센터,서울특별시 동작구 양녕로27길 44,서울특별시 동작구 상도동 202-58,574.86,50,,126.9413356,37.4995092,2,4,Y,Y,N,,-
2025,1159056000,특정계층이용시설,회원이용시설,약수경로당,서울특별시 동작구 양녕로 210-10 ,서울특별시 동작구 상도동 211-438,124.25,20,,126.9448521,37.4995625,2,2,N,N,N,,-
2025,1159056000,특정계층이용시설,회원이용시설,성대골경로당,서울특별시 동작구 성대로10나길 1-4 ,서울특별시 동작구 상도동 261-16,180.15,30,,126.9349758,37.4973118,4,2,N,N,N,,-
2025,1159056000,특정계층이용시설,회원이용시설,송학경로당(상도동),서울특별시 동작구 성대로29길 53,서울특별시 동작구 상도동 188-81,104.22,30,,126.9377329,37.5006327,3,2,N,N,N,,-
2025,1159056000,특정계층이용시설,회원이용시설,상도4동경로당,서울특별시 동작구 양녕로22바길 95,서울특별시 동작구 상도동 211-94,89.1,20,,126.9470062,37.4991694,2,2,,,,,-
2025,1159060500,특정계층이용시설,회원이용시설,아크로리버하임아파트경로당,서울특별시 동작구 현충로 52,서울특별시 동작구 흑석동 342,100,50,,126.96133,37.509579,0,2,N,N,N,,-
2025,1159060500,특정계층이용시설,회원이용시설,흑석한강푸르지오아파트경로당,서울특별시 동작구 흑석한강로 27,서울특별시 동작구 흑석동 336,176.48,60,,126.965452,37.503206,5,4,N,N,N,,-
2025,1159060500,특정계층이용시설,회원이용시설,흑석한강센트레빌1차아파트경로당,서울특별시 동작구 흑석한강로 12,서울특별시 동작구 흑석동 335,147.54,60,,126.965079,37.505863,2,1,N,N,N,,-
2025,1159060500,특정계층이용시설,회원이용시설,흑석한강센트레빌2차아파트경로당,서울특별시 동작구 서달로 91,서울특별시 동작구 흑석동 339,224.19,80,,126.958616,37.502168,3,4,N,N,N,,-
2025,1159060500,특정계층이용시설,회원이용시설,한강현대아파트경로당,서울특별시 동작구 현충로 151,서울특별시 동작구 흑석동 28,132,40,,126.970308,37.506828,0,2,N,N,N,,-
2025,1159060500,특정계층이용시설,회원이용시설,명수대현대아파트경로당,서울특별시 동작구 현충로 119,서울특별시 동작구 흑석동 10,135,60,,126.966924,37.507858,1,2,N,N,N,,-
2025,1159060500,특정계층이용시설,회원이용시설,동양아파트경로당,서울특별시 동작구 서달로1길 17,서울특별시 동작구 흑석동 328,109.2,60,,126.958659,37.500461,1,2,N,N,N,,-
2025,1154567000,공공시설,공공청사,시흥4동주민센터,서울특별시 금천구 독산로36길 14,서울특별시 금천구 시흥동 812-38,30,50,,126.9061289,37.458957,2,1,Y,Y,N,,02-2627-1385
2025,1154570000,공공시설,복지?문화?체육시설,새재미마을활력소,서울특별시 금천구 독산로50길 105,서울특별시 금천구 시흥동 3-83,150,40,토요일 10:00~18:00,126.9101755,37.4623248,2,2,N,N,N,,02-2627-1385
2025,1154571000,공공시설,복지?문화?체육시설,공동체경제통합지원센터(1관),서울특별시 금천구 은행나무로 45,서울특별시 금천구 시흥동 909-34,119,29,,126.9074665,37.4510333,0,5,N,N,N,,02-2627-1385
2025,1154571000,공공시설,복지?문화?체육시설,금천마을활력소어울샘(2층어울샘홀),서울특별시 금천구 탑골로 22,서울특별시 금천구 시흥동 247-19,150,30,,126.9116314,37.4518201,0,3,N,N,N,,02-2627-1385
2025,1154571000,특정계층이용시설,회원이용시설,읍내경로당,서울특별시 금천구 은행나무로10길 12-1 ,서울특별시 금천구 시흥동 921-29,95,30,,126.9063177,37.4504237,4,2,N,N,N,,02-2627-1385
2025,1154571000,공공시설,공공청사,시흥5동주민센터,서울특별시 금천구 금하로24길 6,서울특별시 금천구 시흥동 910-5,711,30,,126.9084,37.4508,12,4,Y,Y,N,,02-2627-1385
2025,1156051500,특정계층이용시설,회원이용시설,우성4차아파트경로당,서울특별시 영등포구 영등포로64길 8,서울특별시 영등포구 신길동 102-8,181,35,,126.91774,37.513824,4,2,N,N,N,,02-2670-3401
2025,1156051500,특정계층이용시설,회원이용시설,순영아파트경로당,서울특별시 영등포구 영등포로62길 42,서울특별시 영등포구 영등포동 648,32,38,,126.913234,37.516551,2,1,N,N,N,,02-2670-3401
2025,1156051500,특정계층이용시설,회원이용시설,구립영등포본동경로당,서울특별시 영등포구 영신로9나길 7,서울특별시 영등포구 영등포동 620-50,290,50,,126.9066274,37.5129173,2,2,N,N,N,,02-2670-3401
2025,1156051500,공공시설,복지?문화?체육시설,청소년문화의집작은도서관,서울특별시 영등포구 영등포로64길 15,서울특별시 영등포구 신길동 107-2,50,10,,126.9172,37.5135,0,1,,,,,02-2670-3844
2025,1156051500,공공시설,복지?문화?체육시설,영등포본동작은도서관,서울특별시 영등포구 신길로61길 17,서울특별시 영등포구 영등포동 592-70,40,16,,126.9093134,37.5146921,5,5,,Y,,,02-2670-3064
2025,1156051500,공공시설,공공청사,영등포본동주민센터,서울특별시 영등포구 신길로61길 17,서울특별시 영등포구 영등포동 592-70,65,30,,126.90932,37.514638,5,5,,Y,,,02-2670-3064
2025,1156051500,특정계층이용시설,회원이용시설,구립신광경로당,서울특별시 영등포구 신길로60길 31-2 ,서울특별시 영등포구 신길동 186-128,195,50,,126.9137836,37.5134917,1,2,Y,Y,,,02-2670-3401
2025,1156051500,특정계층이용시설,회원이용시설,구립방학경로당,서울특별시 영등포구 영등포로62라길 2-12 ,서울특별시 영등포구 신길동 36-4,257,25,,126.915366,37.516604,4,2,Y,Y,N,,02-2670-3401
2025,1156053500,특정계층이용시설,회원이용시설,영등포동삼환아파트경로당,서울특별시 영등포구 영중로 145,서울특별시 영등포구 영등포동8가 76-1,105,20,,126.905064,37.529668,3,1,N,N,N,,02-2670-3401
2025,1156053500,특정계층이용시설,회원이용시설,경남아파트경로당,서울특별시 영등포구 양산로 177,서울특별시 영등포구 영등포동7가 46-1,155,40,,126.902934,37.52401,1,1,N,N,N,,02-2670-3401
2025,1156053500,특정계층이용시설,회원이용시설,현대프라자경로당,서울특별시 영등포구 양산로 214,서울특별시 영등포구 영등포동5가 49-1,56,15,,126.906952,37.522274,2,1,N,N,N,,02-2670-3401
2025,1156053500,공공시설,복지?문화?체육시설,시립영등포장애인복지관,서울특별시 영등포구 버드나루로 22,서울특별시 영등포구 영등포동2가 94-379,69.7,15,,126.912877,37.5208612,2,2,,,,,02-2670-3401
2025,1156053500,공공시설,복지?문화?체육시설,영등포동작은도서관,서울특별시 영등포구 국회대로44길 4,서울특별시 영등포구 영등포동7가 57-7,50,20,,126.9036224,37.5253383,0,1,N,N,N,,02-2636-8222
2025,1156053500,특정계층이용시설,회원이용시설,구립영중경로당,서울특별시 영등포구 영중로27길 3,서울특별시 영등포구 영등포동7가 49-1,102,45,,126.9047222,37.5241207,4,1,N,N,N,,02-2670-3401
2025,1156054000,특정계층이용시설,회원이용시설,미성아파트경로당,서울특별시 영등포구 의사당대로 110,서울특별시 영등포구 여의도동 37,,,,126.923831,37.520653,1,1,Y,Y,N,,02-2670-3401
2025,1156054000,공공시설,복지?문화?체육시설,여의동작은도서관,서울특별시 영등포구 국제금융로 124,서울특별시 영등포구 여의도동 53-22,62,10,,126.9345624,37.5176581,1,2,,Y,,,02-2670-3064
2025,1156054000,공공시설,공공청사,여의동주민센터,서울특별시 영등포구 국제금융로 124,서울특별시 영등포구 여의도동 53-22,62,10,,126.93457,37.517634,1,2,,Y,,,02-2670-3064
2025,1156054000,특정계층이용시설,회원이용시설,구립광장아파트경로당,서울특별시 영등포구 여의나루로 7,서울특별시 영등포구 여의도동 28,132,50,,126.9206801,37.5203314,2,3,Y,Y,N,,02-2670-3401
2025,1156055000,특정계층이용시설,회원이용시설,동부센트레빌아파트경로당,서울특별시 영등포구 영신로 191,서울특별시 영등포구 당산동3가 561,,,,126.900828,37.524763,3,3,N,N,N,,02-2670-3401
2025,1156055000,특정계층이용시설,회원이용시설,한양아파트경로당,서울특별시 영등포구 영신로 193,서울특별시 영등포구 당산동3가 2-6,,,,126.900796,37.525197,1,2,N,N,N,,02-2670-3401
2025,1156055000,특정계층이용시설,회원이용시설,쌍용예가아파트경로당,서울특별시 영등포구 당산로31길 32,서울특별시 영등포구 당산동3가 559,,,,126.893755,37.527626,2,1,Y,Y,N,,02-2670-3401
2025,1156055000,특정계층이용시설,회원이용시설,대우아파트경로당,서울특별시 영등포구 영등포로 106,서울특별시 영등포구 당산동2가 16-1,,,,126.892975,37.521095,2,1,Y,Y,N,,02-2670-3401
2025,1156055000,특정계층이용시설,회원이용시설,진로아파트경로당,서울특별시 영등포구 당산로 68,서울특별시 영등포구 당산동1가 16-1,,,,126.896314,37.520665,2,1,Y,Y,N,,02-2670-3401
2025,1156055000,특정계층이용시설,회원이용시설,당산코오롱아파트경로당,서울특별시 영등포구 영등포로28길 5,서울특별시 영등포구 당산동1가 9-1,,,,126.899477,37.519963,0,1,Y,Y,N,,02-2670-3401
2025,1156055000,특정계층이용시설,회원이용시설,신동아파밀리에아파트경로당,서울특별시 영등포구 영신로33길 3,서울특별시 영등포구 당산동1가 457,,,,126.900464,37.519912,2,2,Y,Y,N,,02-2670-3401
2025,1156055000,공공시설,복지?문화?체육시설,당산1동작은도서관,서울특별시 영등포구 양산로23길 11,서울특별시 영등포구 당산동3가 250,60,22,,126.8974255,37.525016,1,2,N,N,N,,02-2677-7916
2025,1156055000,공공시설,공공청사,당산1동주민센터,서울특별시 영등포구 양산로23길 11,서울특별시 영등포구 당산동3가 259,77,23,,126.8972987,37.5251328,2,3,,Y,,,02-2670-3064
2025,1156055000,특정계층이용시설,회원이용시설,구립당산3가경로당,서울특별시 영등포구 당산로29길 9,서울특별시 영등포구 당산동3가 407,132,30,,126.8939,37.526,2,2,,,,,02-2670-3401
2025,1156055000,특정계층이용시설,회원이용시설,구립당산1가경로당,서울특별시 영등포구 영등포로29길 13,서울특별시 영등포구 당산동1가 150-1,287,35,,126.9002,37.5221,2,2,,,,,02-2670-3401
2025,1156055000,특정계층이용시설,회원이용시설,구립당산1동경로당,서울특별시 영등포구 영등포로25길 24,서울특별시 영등포구 당산동1가 223-18,135,30,,126.8985,37.5231,2,3,Y,Y,,,02-2670-3401
2025,1156055000,특정계층이용시설,회원이용시설,SH아파트경로당,서울특별시 영등포구 영신로 183,서울특별시 영등포구 당산동3가 562,71,35,,126.9014215,37.5244939,4,1,Y,Y,N,,02-2670-3401
2025,1156056000,특정계층이용시설,회원이용시설,당산2차효성타운아파트경로당,서울특별시 영등포구 당산로42길 7,서울특별시 영등포구 당산동5가 13,,,,126.900799,37.531255,2,3,N,N,N,,02-2670-3401
2025,1156056000,특정계층이용시설,회원이용시설,성원아파트경로당,서울특별시 영등포구 양평로 57,서울특별시 영등포구 당산동5가 40,,,,126.899648,37.534529,3,2,N,N,N,,02-2670-3401
2025,1156056000,특정계층이용시설,회원이용시설,롯데캐슬프레스티지아파트경로당,서울특별시 영등포구 영신로 237,서울특별시 영등포구 당산동4가 99,,,,126.902516,37.528928,3,3,Y,Y,N,,02-2670-3401
2025,1156056000,특정계층이용시설,회원이용시설,당산강변래미안아파트경로당,서울특별시 영등포구 버드나루로 130,서울특별시 영등포구 당산동 376,,,,126.908164,37.529961,3,2,Y,Y,N,,02-2670-3401
2025,1156056000,특정계층이용시설,회원이용시설,당산효성1차아파트경로당,서울특별시 영등포구 당산로42길 13,서울특별시 영등포구 당산동5가 12,,,,126.90184,37.530765,2,1,Y,Y,N,,02-2670-3401
2025,1156056000,특정계층이용시설,회원이용시설,삼성2차아파트경로당,서울특별시 영등포구 당산로36길 12,서울특별시 영등포구 당산동4가 94-1,,,,126.898307,37.527843,1,1,Y,Y,N,,02-2670-3401
2025,1156056000,특정계층이용시설,회원이용시설,현대3차아파트경로당,서울특별시 영등포구 당산로41길 23,서울특별시 영등포구 당산동4가 88,,,,126.896097,37.530906,4,1,Y,Y,,,02-2670-3401
2025,1156056000,특정계층이용시설,회원이용시설,유원제일2차아파트경로당,서울특별시 영등포구 선유동2로 56,서울특별시 영등포구 당산동5가 7-2,,,,126.898511,37.533492,1,1,Y,Y,N,,02-2670-3401
2025,1156056000,공공시설,복지?문화?체육시설,당산2동작은도서관,서울특별시 영등포구 당산로41가길 7,서울특별시 영등포구 당산동4가 80-5,33,4,,126.8973788,37.531098,4,6,,Y,,,02-2670-3064
2025,1156056000,공공시설,공공청사,당산2동주민센터,서울특별시 영등포구 당산로41가길 7,서울특별시 영등포구 당산동4가 80-5,81.75,24,,126.897338,37.531015,4,6,,Y,,,02-2670-3064
2025,1156056000,특정계층이용시설,회원이용시설,구립당산2동경로당,서울특별시 영등포구 당산로48길 16,서울특별시 영등포구 당산동6가 184,119,25,,126.9039603,37.5349296,4,2,Y,Y,N,,02-2670-3401
2025,1156058500,특정계층이용시설,회원이용시설,쌍용플레티넘시티경로당,서울특별시 영등포구 도영로7길 15,서울특별시 영등포구 도림동 820,145,23,,126.894388,37.509479,3,2,Y,Y,N,,02-2670-3401
2025,1156058500,특정계층이용시설,회원이용시설,동아에코빌경로당,서울특별시 영등포구 도림로 365,서울특별시 영등포구 도림동 165-1,120,25,,126.898771,37.509305,1,1,Y,Y,N,,02-2670-3401
2025,1156058500,특정계층이용시설,회원이용시설,도림한라아파트경로당,서울특별시 영등포구 도신로15라길 5-7 ,서울특별시 영등포구 도림동 231-1,55.08,24,,126.897248,37.50759,2,1,Y,Y,N,,02-2670-3401
2025,1156058500,특정계층이용시설,회원이용시설,영등포아트자이아파트,서울특별시 영등포구 도영로 66,서울특별시 영등포구 도림동 821,184.8,38,,126.900217,37.510236,3,4,Y,Y,N,,02-2670-3401
2025,1156058500,공공시설,복지?문화?체육시설,늘샘드리작은도서관,서울특별시 영등포구 도영로7길 10,서울특별시 영등포구 도림동 222-7,205,31,,126.8959,37.5094,0,2,,Y,,,02-2670-3064
2025,1156058500,공공시설,공공청사,도림동주민센터,서울특별시 영등포구 도영로7길 10,서울특별시 영등포구 도림동 222-7,"2,246.40",30,,126.89597,37.509459,0,2,,Y,,,02-2670-3064
2025,1156058500,특정계층이용시설,회원이용시설,구립모랫말경로당 ,서울특별시 영등포구 도영로 41,서울특별시 영등포구 도림동 205-23,176,40,,126.897459,37.50968,5,3,Y,Y,N,,02-2670-3401
2025,1156058500,특정계층이용시설,회원이용시설,구립미루나무길경로당,서울특별시 영등포구 도신로29가길 12,서울특별시 영등포구 도림동 81-2,175,40,,126.906434,37.509358,4,3,N,N,N,,02-2670-3401
2025,1156060500,특정계층이용시설,회원이용시설,베어스타운아파트,서울특별시 영등포구 선유서로 40,서울특별시 영등포구 문래동6가 38-1,,,,126.885304,37.519112,1,2,N,N,N,,02-2670-3401
2025,1156060500,특정계층이용시설,회원이용시설,문래두산위브경로당,서울특별시 영등포구 선유로9나길 8,서울특별시 영등포구 문래동5가 14,,,,126.885712,37.51696,1,2,N,N,N,,02-2670-3401
2025,1156060500,특정계층이용시설,회원이용시설,문래동현대3차아파트경로당,서울특별시 영등포구 선유서로 6,서울특별시 영등포구 문래동5가 21,,,,126.884349,37.516279,1,1,N,N,N,,02-2670-3401
2025,1156060500,특정계층이용시설,회원이용시설,문래동현대2차아파트경로당,서울특별시 영등포구 문래로4길 6,서울특별시 영등포구 문래동6가 45,,,,126.882804,37.520525,2,1,N,N,N,,02-2670-3401
2025,1156060500,특정계층이용시설,회원이용시설,문래동현대1차아파트경로당,서울특별시 영등포구 문래로4길 14,서울특별시 영등포구 문래동6가 46,,,,126.882654,37.519504,3,1,N,N,N,,02-2670-3401
2025,1156060500,특정계층이용시설,회원이용시설,해태아파트경로당,서울특별시 영등포구 영신로25길 8,서울특별시 영등포구 문래동3가 13,,,,126.901268,37.517215,0,1,N,N,N,,02-2670-3401
2025,1156060500,특정계층이용시설,회원이용시설,문래자이아파트경로당,서울특별시 영등포구 당산로 26,서울특별시 영등포구 문래동3가 54,,,,126.896537,37.516398,2,3,,,,,02-2670-3401
2025,1156060500,특정계층이용시설,회원이용시설,문래건영아파트경로당,서울특별시 영등포구 문래로 94-7 ,서울특별시 영등포구 문래동3가 93-1,,,,126.892428,37.518449,2,1,N,N,N,,02-2670-3401
2025,1156060500,특정계층이용시설,회원이용시설,남성아파트경로당,서울특별시 영등포구 경인로77길 19,서울특별시 영등포구 문래동2가 35,,,,126.891451,37.512594,2,2,,,,,02-2670-3401
2025,1156060500,특정계층이용시설,회원이용시설,공원한신아파트경로당,서울특별시 영등포구 문래로20길 14,서울특별시 영등포구 문래동3가 77-2,,,,126.892945,37.517776,2,1,N,N,N,,02-2670-3401
2025,1156060500,특정계층이용시설,회원이용시설,문래제2경로당,서울특별시 영등포구 영신로25길 11,서울특별시 영등포구 문래동3가 14,,,,126.900882,37.517334,2,1,N,N,N,,02-2670-3401
2025,1156060500,특정계층이용시설,회원이용시설,문래동한신아파트경로당,서울특별시 영등포구 선유서로 43,서울특별시 영등포구 문래동6가 43,,,,126.883767,37.519355,3,1,N,N,N,,02-2670-3401
2025,1156060500,공공시설,공공청사,문래동주민센터,서울특별시 영등포구 문래로28길 15,서울특별시 영등포구 문래동3가 55-16,250.44,10,,126.899488,37.517087,9,25,,Y,,,02-2670-3064
2025,1156060500,특정계층이용시설,회원이용시설,구립문래제1경로당,서울특별시 영등포구 문래로20길 7,서울특별시 영등포구 문래동3가 73-1,201,50,,126.894186,37.518434,5,5,N,N,N,,02-2670-3401
2025,1156060500,특정계층이용시설,회원이용시설,구립목화경로당,서울특별시 영등포구 도림로143길 20-7 ,서울특별시 영등포구 문래동4가 35-7,195,50,,126.890176,37.514225,2,4,N,N,N,,02-2670-3401
2025,1156060500,특정계층이용시설,회원이용시설,문래현대6차아파트경로당,서울특별시 영등포구 선유서로 31,서울특별시 영등포구 문래동6가 55-1,,,,126.883794,37.518427,3,1,N,N,N,,02-2670-3401
2025,1156060500,특정계층이용시설,회원이용시설,문래현대5차아파트경로당,서울특별시 영등포구 선유서로9길 5,서울특별시 영등포구 문래동5가 23-1,,,,126.882836,37.517598,2,1,N,N,N,,02-2670-3401
2025,1156061000,특정계층이용시설,회원이용시설,상록수아파트경로당,서울특별시 영등포구 영등포로 17,서울특별시 영등포구 양평동2가 45,,20,,126.883652,37.523776,3,1,N,N,N,,02-2670-3401
2025,1156061000,특정계층이용시설,회원이용시설,우림루미아파트경로당,서울특별시 영등포구 선유로33길 23,서울특별시 영등포구 양평동3가 102,,20,,126.88808,37.52652,2,2,Y,Y,N,,02-2670-3401
2025,1156061000,특정계층이용시설,회원이용시설,양평동경남아너스빌아파트경로당,서울특별시 영등포구 선유로33길 30,서울특별시 영등포구 양평동3가 55-1,,20,,126.888383,37.527213,2,1,Y,Y,N,,02-2670-3401
2025,1156061000,특정계층이용시설,회원이용시설,양평1동삼천리아파트경로당,서울특별시 영등포구 선유서로 115,서울특별시 영등포구 양평동3가 24,,20,,126.885636,37.526065,2,1,N,N,N,,02-2670-3401
2025,1156061000,특정계층이용시설,회원이용시설,양평역월드메르디앙아파트경로당,서울특별시 영등포구 선유서로 116,서울특별시 영등포구 양평동3가 19,,20,,126.886602,37.525903,2,1,Y,Y,N,,02-2670-3401
2025,1156061000,특정계층이용시설,회원이용시설,벽산아파트경로당,서울특별시 영등포구 선유서로21길 15,서울특별시 영등포구 양평동2가 23,,20,,126.882911,37.522346,2,2,,,,,02-2670-3401
2025,1156061000,특정계층이용시설,회원이용시설,양평1동신동아아파트경로당,서울특별시 영등포구 영등포로12길 8,서울특별시 영등포구 양평동1가 20,,20,,126.886544,37.522135,1,1,N,N,N,,02-2670-3401
2025,1156061000,특정계층이용시설,회원이용시설,양평1동삼호아파트경로당,서울특별시 영등포구 선유로 172,서울특별시 영등포구 양평동3가 66,,20,,126.892621,37.528438,2,1,N,N,N,,02-2670-3401
2025,1156061000,공공시설,복지?문화?체육시설,양평1동작은도서관,서울특별시 영등포구 선유서로34길 10,서울특별시 영등포구 양평동3가 36,92,24,,126.8875215,37.5268931,2,2,Y,Y,N,,02-2670-3401
2025,1156061000,공공시설,공공청사,양평1동주민센터,서울특별시 영등포구 영등포로11길 12,서울특별시 영등포구 양평동1가 211-1,796.3,30,,126.888261,37.523614,0,1,N,N,N,,02-3667-9996
2025,1156061000,특정계층이용시설,회원이용시설,구립양평3가경로당,서울특별시 영등포구 선유서로34길 10,서울특별시 영등포구 양평동3가 36,67,20,,126.8874355,37.5268709,2,2,Y,Y,N,,02-2670-3401
2025,1156061000,특정계층이용시설,회원이용시설,구립양평1경로당,서울특별시 영등포구 선유로23길 18,서울특별시 영등포구 양평동1가 205,76,20,,126.888255,37.523217,2,2,Y,Y,N,,02-2670-3401
2025,1156062000,특정계층이용시설,회원이용시설,현대2차아파트경로당,서울특별시 영등포구 선유동2로 29,서울특별시 영등포구 양평동3가 79-4,63,31,,126.895249,37.532131,1,2,N,N,N,,02-2670-3401
2025,1156062000,특정계층이용시설,회원이용시설,경남2차아파트경로당,서울특별시 영등포구 양평로17길 9,서울특별시 영등포구 양평동4가 51-1,24,27,,126.896245,37.535734,2,1,N,N,N,,02-2670-3401
2025,1156062000,특정계층이용시설,회원이용시설,삼호한숲아파트경로당,서울특별시 영등포구 선유로47길 34,서울특별시 영등포구 양평동4가 94,30,39,,126.893705,37.536895,2,1,N,N,N,,02-2670-3401
2025,1156062000,특정계층이용시설,회원이용시설,동양아파트경로당,서울특별시 영등포구 양평로30가길 15,서울특별시 영등포구 양평동6가 100,60,25,,126.889652,37.542297,1,1,N,N,N,,02-2670-3401
2025,1156060500,특정계층이용시설,회원이용시설,영등포노인종합복지관,서울특별시 영등포구 도림로 482,서울특별시 영등포구 문래동3가 76-2,72,21,,126.8901,37.5169,1,3,,,,,02-2670-3401
2025,1156061000,특정계층이용시설,회원이용시설,양평삼성래미안아파트경로당,서울특별시 영등포구 영등포로3길 7,서울특별시 영등포구 양평동2가 38-1,,20,,126.882622,37.524337,3,2,Y,Y,N,,02-2670-3401
2025,1156062000,특정계층이용시설,회원이용시설,거성파스텔아파트경로당,서울특별시 영등포구 선유로43가길 24,서울특별시 영등포구 양평동3가 90-1,67,25,,126.891861,37.531508,4,3,N,N,N,,02-2670-3401
2025,1156062000,특정계층이용시설,회원이용시설,한신아파트경로당,서울특별시 영등포구 양평로24길 9,서울특별시 영등포구 양평동5가 76,82,40,,126.892031,37.540503,6,2,Y,Y,,,02-2670-3401
2025,1156062000,특정계층이용시설,회원이용시설,양평2동성원아파트경로당,서울특별시 영등포구 양평로17길 36,서울특별시 영등포구 양평동4가 12,35,29,,126.893857,37.534207,2,2,,,,,02-2670-3401
2025,1156062000,공공시설,복지?문화?체육시설,양평2동작은도서관,서울특별시 영등포구 선유로47길 30,서울특별시 영등포구 양평동4가 96,150,13,,126.8939038,37.5364968,3,12,,Y,,,02-2670-3064
2025,1156062000,공공시설,공공청사,양평2동주민센터,서울특별시 영등포구 선유로47길 30,서울특별시 영등포구 양평동4가 96,551.13,30,,126.8939996,37.5364445,3,12,,Y,,,02-2670-3064
2025,1156062000,특정계층이용시설,회원이용시설,구립양화경로당,서울특별시 영등포구 양평로28마길 18-1 ,서울특별시 영등포구 양평동6가 68,317,80,,126.8899416,37.5428786,5,2,N,N,N,,02-2670-3401
2025,1156062000,특정계층이용시설,회원이용시설,구립양평동4가경로당,서울특별시 영등포구 양평로20길 14-1 ,서울특별시 영등포구 양평동4가 238-1,383,100,,126.8963,37.5382,6,4,Y,Y,,,02-2670-3401
2025,1156063000,특정계층이용시설,회원이용시설,신길1동경남아파트경로당,서울특별시 영등포구 영등포로 351,서울특별시 영등포구 신길동 67-1,74,40,,126.918595,37.515658,2,2,Y,Y,N,,02-2670-3401
2025,1156063000,특정계층이용시설,회원이용시설,신길자이아파트경로당,서울특별시 영등포구 가마산로79길 19,서울특별시 영등포구 신길동 4938,98,25,,126.916517,37.506402,1,4,N,N,N,,02-2670-3401
2025,1156063000,특정계층이용시설,회원이용시설,신기목련아파트경로당,서울특별시 영등포구 신길로42가길 34,서울특별시 영등포구 신길동 4935,85,35,,126.9150147,37.5083365,4,1,Y,Y,N,,02-2670-3401
2025,1156063000,공공시설,복지?문화?체육시설,신길1동작은도서관,서울특별시 영등포구 영등포로84길 24-5 ,서울특별시 영등포구 신길동 465-1,97,25,,126.921443,37.5109972,1,3,,Y,,,02-2670-3064
2025,1156063000,공공시설,공공청사,신길1동주민센터,서울특별시 영등포구 영등포로84길 24-5 ,서울특별시 영등포구 신길동 465-1,915.59,30,,126.9214263,37.511156,1,3,,Y,,,02-2670-3064
2025,1156063000,특정계층이용시설,회원이용시설,구립대신경로당,서울특별시 영등포구 도신로54길 9-17 ,서울특별시 영등포구 신길동 157-33,111,20,,126.91572,37.510894,3,3,N,N,N,,02-2670-3401
2025,1156063000,특정계층이용시설,회원이용시설,구립창신경로당,서울특별시 영등포구 여의대방로53나길 43,서울특별시 영등포구 신길동 89-197,390,40,,126.9206729,37.5099626,4,3,Y,Y,N,,02-2670-3401
2025,1156062000,특정계층이용시설,회원이용시설,6차현대아파트경로당,서울특별시 영등포구 선유로 207,서울특별시 영등포구 양평동3가 101,134,40,,126.89379,37.531816,4,3,N,N,N,,02-2670-3401
2025,1156062000,특정계층이용시설,회원이용시설,한솔아파트경로당,서울특별시 영등포구 양평로30길 51,서울특별시 영등포구 양평동6가 99,60,30,,126.887833,37.544331,2,1,,,,,02-2670-3401
2025,1156063000,특정계층이용시설,회원이용시설,구립영길경로당,서울특별시 영등포구 영등포로 343-4 ,서울특별시 영등포구 신길동 54-8,185,56,,126.9177981,37.5155974,2,1,Y,Y,N,,02-2670-3401
2025,1156065000,특정계층이용시설,회원이용시설,우성5차아파트경로당,서울특별시 영등포구 도신로 98,서울특별시 영등포구 신길동 4933,,,,126.903446,37.506824,2,2,N,N,N,,02-2670-3401
2025,1156065000,특정계층이용시설,회원이용시설,우성1차아파트경로당,서울특별시 영등포구 도신로 68,서울특별시 영등포구 신길동 365,,,,126.900732,37.505198,2,3,,,,,02-2670-3401
2025,1156065000,특정계층이용시설,회원이용시설,신길센트럴아이파크경로당,서울특별시 영등포구 가마산로 426,서울특별시 영등포구 신길동 4955,,,,126.904551,37.504075,1,4,Y,Y,,,02-2670-3401
2025,1156065000,특정계층이용시설,회원이용시설,구립신길3동경로당,서울특별시 영등포구 도신로 134-1 ,서울특별시 영등포구 신길동 290-8,85,30,,126.9065,37.5085,2,1,Y,Y,,,02-2670-3401
2025,1156066000,특정계층이용시설,회원이용시설,삼성래미안아파트경로당,서울특별시 영등포구 신길로42길 35,서울특별시 영등포구 신길동 4934-1,208,63,,126.914671,37.50739,4,3,Y,Y,N,,02-2670-3401
2025,1156066000,공공시설,복지?문화?체육시설,드나드리마을도서관,서울특별시 영등포구 신길로42길 1,서울특별시 영등포구 신길동 209-102,127,20,,126.911339,37.5084038,2,8,,Y,,,02-2670-3064
2025,1156066000,공공시설,공공청사,신길4동주민센터,서울특별시 영등포구 신길로42길 1,서울특별시 영등포구 신길동 209-102,111.1,20,,126.911266,37.50842,2,8,,Y,,,02-2670-3064
2025,1156066000,특정계층이용시설,회원이용시설,삼성아파트112동경로당,서울특별시 영등포구 신길로42길 25,서울특별시 영등포구 신길동 4934-2,66,25,,126.9137,37.5073,4,1,Y,Y,,,02-2670-3401
2025,1156066000,특정계층이용시설,회원이용시설,구립신길4동경로당,서울특별시 영등포구 신길로42길 13-1 ,서울특별시 영등포구 신길동 209-119,198,60,,126.912352,37.507797,2,2,Y,Y,N,,02-2670-3401
2025,1156067000,특정계층이용시설,회원이용시설,신길뉴타운한화꿈에그린경로당,서울특별시 영등포구 신길로 119,서울특별시 영등포구 신길동 4937,,,,126.909701,37.502926,2,1,Y,Y,N,,02-2670-3401
2025,1156067000,특정계층이용시설,회원이용시설,신길센트럴자이아파트경로당,서울특별시 영등포구 신길로29길 17,서울특별시 영등포구 신길동 4964,,,,126.907706,37.503164,0,7,Y,Y,N,,02-2670-3401
2025,1156067000,공공시설,복지?문화?체육시설,꿈터마을도서관,서울특별시 영등포구 도림로 264,서울특별시 영등포구 신길동 422,105,6,,126.9051222,37.5016464,0,3,N,N,N,,02-836-1005
2025,1156067000,공공시설,공공청사,신길5동주민센터,서울특별시 영등포구 도림로 264,서울특별시 영등포구 신길동 422,"1,261.30",30,,126.905201,37.501607,0,3,N,N,N,,02-836-1005
2025,1156067000,특정계층이용시설,회원이용시설,구립신길5동제1경로당,서울특별시 영등포구 신길로13길 24,서울특별시 영등포구 신길동 440-45,122,50,,126.905654,37.497691,2,2,Y,Y,N,,02-2670-3401
2025,1156067000,특정계층이용시설,회원이용시설,구립신풍경로당,서울특별시 영등포구 도림로80길 6,서울특별시 영등포구 신길동 341-3,100.9,30,,126.9054258,37.5017578,2,2,N,N,N,,02-2670-3401
2025,1156067000,특정계층이용시설,회원이용시설,6.25참전자경로당,서울특별시 영등포구 도림로80길 4,서울특별시 영등포구 신길동 341-6,119,40,,126.905281,37.5017901,0,4,N,N,N,,02-2670-3401
2025,1156068000,특정계층이용시설,회원이용시설,신길파크자이아파트경로당,서울특별시 영등포구 신길로28길 25,서울특별시 영등포구 신길동 4967,,,,126.913649,37.503164,4,1,N,N,N,,02-2670-3401
2025,1156068000,특정계층이용시설,회원이용시설,보라매경남아너스빌아파트경로당,서울특별시 영등포구 여의대방로 25,서울특별시 영등포구 신길동 4780,,,,126.910216,37.495112,2,1,N,N,N,,02-2670-3401
2025,1156068000,특정계층이용시설,회원이용시설,삼성아파트경로당,서울특별시 영등포구 여의대방로 45,서울특별시 영등포구 신길동 4759,,,,126.911332,37.496474,1,1,N,N,N,,02-2670-3401
2025,1156068000,특정계층이용시설,회원이용시설,신길6동분회경로당,서울특별시 영등포구 신풍로 96,서울특별시 영등포구 신길동 4086,,,,126.916654,37.499708,5,1,,,,,02-2670-3401
2025,1156068000,특정계층이용시설,회원이용시설,보라매두산위브아파트경로당,서울특별시 영등포구 여의대방로9길 5,서울특별시 영등포구 신길동 4497,,,,126.914529,37.497257,2,2,N,N,N,,02-2670-3401
2025,1156068000,공공시설,복지?문화?체육시설,신길6동작은도서관,서울특별시 영등포구 대방천로 167,서울특별시 영등포구 신길동 3741-11,193,40,,126.9098763,37.4993371,0,3,,Y,,,02-2670-3064
2025,1156068000,공공시설,공공청사,신길6동주민센터,서울특별시 영등포구 대방천로 167,서울특별시 영등포구 신길동 3741-11,84,21,,126.9098327,37.4993762,0,3,,Y,,,02-2670-3064
2025,1156068000,특정계층이용시설,회원이용시설,구립신길6동경로당,서울특별시 영등포구 대방천로 193,서울특별시 영등포구 신길동 3741-37,95,30,,126.912418,37.499168,2,2,N,N,N,,02-2670-3401
2025,1156069000,특정계층이용시설,회원이용시설,삼환아파트경로당,서울특별시 영등포구 여의대방로43라길 9,서울특별시 영등포구 신길동 897-1,204,61,,126.919478,37.508288,4,2,Y,Y,,,02-2670-3401
2025,1156069000,특정계층이용시설,회원이용시설,한성아파트경로당,서울특별시 영등포구 가마산로 575,서울특별시 영등포구 신길동 769-1,113.8,34,,126.919379,37.504764,4,2,,,,,02-2670-3401
2025,1156069000,공공시설,복지?문화?체육시설,마을서랍마을도서관,서울특별시 영등포구 여의대방로43길 10,서울특별시 영등포구 신길동 897-3,39,18,,126.9214256,37.5064445,6,9,,Y,,,02-2670-3064
2025,1156069000,공공시설,공공청사,신길7동주민센터,서울특별시 영등포구 여의대방로43길 10,서울특별시 영등포구 신길동 897-3,"2,644.50",30,,126.921419,37.506324,6,9,,Y,,,02-2670-3064
2025,1156069000,특정계층이용시설,회원이용시설,래미안에스티움2경로당,서울특별시 영등포구 신풍로 77,서울특별시 영등포구 신길동 4950,96.85,29,,126.9130025,37.5007996,1,5,N,N,N,,02-2670-3401
2025,1156069000,특정계층이용시설,회원이용시설,구립신길7동경로당,서울특별시 영등포구 여의대방로43길 10,서울특별시 영등포구 신길동 897-3,314,54,,126.921408,37.5064253,6,9,,Y,,,02-2670-3064
2025,1156070000,특정계층이용시설,회원이용시설,한신2차아파트경로당,서울특별시 영등포구 디지털로69길 13,서울특별시 영등포구 대림동 887-1,,,,126.90365,37.494558,3,1,N,N,N,,02-2670-3401
2025,1156070000,특정계층이용시설,회원이용시설,현대아파트경로당,서울특별시 영등포구 시흥대로187길 12,서울특별시 영등포구 대림동 946-1,,,,126.908317,37.493171,4,1,N,N,N,,02-2670-3401
2025,1156070000,특정계층이용시설,회원이용시설,신대림2차신동아파밀리에경로당,서울특별시 영등포구 디지털로 420,서울특별시 영등포구 대림동 1125,,,,126.905335,37.493077,3,1,N,N,N,,02-2670-3401
2025,1156070000,공공시설,복지?문화?체육시설,대림1동작은도서관,서울특별시 영등포구 디지털로 441,서울특별시 영등포구 대림동 899-2,182,30,,126.9059076,37.4954555,1,3,N,N,N,,02-834-4560
2025,1156070000,공공시설,공공청사,대림1동주민센터,서울특별시 영등포구 디지털로 441,서울특별시 영등포구 대림동 899-2,"1,853.80",30,,126.905935,37.495477,1,3,N,N,N,,02-834-4560
2025,1156070000,특정계층이용시설,회원이용시설,구립대림1동경로당,서울특별시 영등포구 디지털로 441,서울특별시 영등포구 대림동 899-2,251,30,,126.905935,37.495477,1,3,N,N,N,,02-834-4560
2025,1156070000,특정계층이용시설,회원이용시설,구립영인경로당,서울특별시 영등포구 도림로58길 11,서울특별시 영등포구 대림동 759-12,132,65,,126.9027253,37.4960638,5,3,N,N,N,,02-2670-3401
2025,1156071000,특정계층이용시설,회원이용시설,신대림한솔솔파크경로당,서울특별시 영등포구 도림천로 431,서울특별시 영등포구 대림동 1123,35.9,25,,126.899573,37.487288,2,1,N,N,N,,02-2670-3401
2025,1156071000,특정계층이용시설,회원이용시설,문영칸타빌레경로당,서울특별시 영등포구 도림천로 391,서울특별시 영등포구 대림동 1061,101,35,,126.897191,37.489791,1,2,Y,Y,,,02-2670-3401
2025,1156071000,공공시설,복지?문화?체육시설,대림2동작은도서관,서울특별시 영등포구 대림로23길 25,서울특별시 영등포구 대림동 705,68,16,,126.8981,37.4926,0,1,,,,,02-832-1215
2025,1156071000,공공시설,공공청사,대림2동주민센터,서울특별시 영등포구 대림로23길 25,서울특별시 영등포구 대림동 705,80,24,,126.898229,37.492712,0,1,,,,,02-832-1215
2025,1156071000,특정계층이용시설,회원이용시설,구립다사랑경로당,서울특별시 영등포구 대림로23가길 5,서울특별시 영등포구 대림동 703-6,192,30,,126.899211,37.492811,9,3,N,N,N,,02-2670-3401
2025,1156071000,특정계층이용시설,회원이용시설,구립대동경로당,서울특별시 영등포구 대림로21길 5,서울특별시 영등포구 대림동 832-2,63,36,,126.9008013,37.4927194,3,2,Y,Y,N,,02-2670-3401
2025,1156072000,특정계층이용시설,회원이용시설,코오롱아파트경로당,서울특별시 영등포구 도영로 2-5 ,서울특별시 영등포구 대림동 607-1,,,,126.894831,37.506994,5,1,Y,Y,N,,02-2670-3401
2025,1156072000,특정계층이용시설,회원이용시설,현대1차아파트,서울특별시 영등포구 도신로4길 10,서울특별시 영등포구 대림동 785-1,,,,126.89496,37.502228,2,1,Y,Y,N,,02-2670-3401
2025,1156072000,특정계층이용시설,회원이용시설,대림3동현대3차아파트경로당,서울특별시 영등포구 도신로 31,서울특별시 영등포구 대림동 608-1,,,,126.895764,37.505547,7,2,Y,Y,,,02-2670-3401
2025,1156072000,특정계층이용시설,회원이용시설,구립원지경로당,서울특별시 영등포구 도림로47길 28,서울특별시 영등포구 대림동 690,92.4,50,,126.8996,37.4977,2,2,Y,Y,,,02-2670-3401
2025,1156072000,특정계층이용시설,회원이용시설,구립동심경로당,서울특별시 영등포구 대림로35길 7,서울특별시 영등포구 대림동 742,132,60,,126.897339,37.4987505,4,4,Y,Y,N,,02-2670-3401
2025,1156072000,특정계층이용시설,회원이용시설,구립신우경로당,서울특별시 영등포구 가마산로47길 13,서울특별시 영등포구 대림동 657,82,35,,126.8991,37.5036,3,2,Y,Y,,,02-2670-3401
2025,1156072000,특정계층이용시설,회원이용시설,구립두암경로당,서울특별시 영등포구 도림로31길 14-1 ,서울특별시 영등포구 대림동 808-4,114,68,,126.8955405,37.4936612,6,2,Y,Y,N,,02-2670-3401
2025,1159051000,특정계층이용시설,회원이용시설,건영아파트경로당,서울특별시 동작구 만양로 26,서울특별시 동작구 노량진동 324,195,50,,126.949517,37.507451,1,1,N,N,N,,-
2025,1159051000,특정계층이용시설,회원이용시설,형인한강아파트경로당,서울특별시 동작구 만양로 36,서울특별시 동작구 노량진동 331,24,10,,126.948314,37.507708,2,2,N,N,N,,-
2025,1159051000,특정계층이용시설,회원이용시설,래미안트윈파크아파트경로당,서울특별시 동작구 노량진로23가길 23,서울특별시 동작구 본동 494,189.53,60,,126.950717,37.51425,2,2,N,N,N,,-
2025,1159051000,특정계층이용시설,회원이용시설,경동A경로당,서울특별시 동작구 노량진로32길 156,서울특별시 동작구 본동 484,83.23,40,,126.954554,37.510004,2,1,N,N,N,,-
2025,1159051000,특정계층이용시설,회원이용시설,본동삼성래미안아파트경로당,서울특별시 동작구 매봉로 123,서울특별시 동작구 본동 492,74.68,40,,126.950203,37.509812,3,1,N,N,N,,-
2025,1159051000,특정계층이용시설,회원이용시설,한신휴플러스아파트경로당,서울특별시 동작구 매봉로 99,서울특별시 동작구 본동 487,109.3,60,,126.949124,37.509471,2,1,N,N,N,,-
2025,1159051000,특정계층이용시설,회원이용시설,신동아아파트경로당,서울특별시 동작구 매봉로 134,서울특별시 동작구 본동 481,66,40,,126.952176,37.509758,3,2,N,N,N,,-
2025,1159051000,특정계층이용시설,회원이용시설,유원강변아파트경로당,서울특별시 동작구 노량진로23가길 16,서울특별시 동작구 본동 482,60.85,40,,126.951535,37.51473,2,1,N,N,N,,-
2025,1159051000,특정계층이용시설,회원이용시설,신동아아파트우리경로당,서울특별시 동작구 만양로 19,서울특별시 동작구 노량진동 326,136,60,,126.941645,37.506033,5,3,N,N,N,,-
2025,1159051000,특정계층이용시설,회원이용시설,우성아파트경로당,서울특별시 동작구 만양로8길 50 (우성아파트),서울특별시 동작구 노량진동 323,165,60,,126.947767,37.509754,2,1,N,N,N,,-
2025,1159051000,특정계층이용시설,회원이용시설,신동아리버파크A경로당,서울특별시 동작구 만양로 19,서울특별시 동작구 노량진동 325,276.54,80,,126.943579,37.507968,4,2,N,N,N,,-
2025,1159051000,특정계층이용시설,회원이용시설,한신휴플러스아파트101동경로당,서울특별시 동작구 매봉로 99,서울특별시 동작구 본동 487,33.26,33,,126.9499753,37.5090081,2,1,N,N,N,,-
2025,1159051000,특정계층이용시설,회원이용시설,대한경로당,서울특별시 동작구 노량진로14길 44,서울특별시 동작구 노량진동 84-33,67.6,50,,126.9426659,37.5117093,6,6,N,N,N,,-
2025,1159051000,특정계층이용시설,회원이용시설,노량진1동경로당,서울특별시 동작구 만양로 77,서울특별시 동작구 노량진동 224-6,249,50,,126.9446152,37.5103903,8,4,N,N,N,,-
2025,1159051000,특정계층이용시설,회원이용시설,충신경로당,서울특별시 동작구 노량진로28길 31,서울특별시 동작구 본동 47-25,132,60,,126.9558768,37.5117555,2,1,N,N,N,,-
2025,1159051000,특정계층이용시설,회원이용시설,한마음경로당,서울특별시 동작구 만양로4길 38,서울특별시 동작구 본동 산 11-1,115.5,29,주소지 : 노량진1동(본동) 관리 : 상도1동,126.950237,37.508243,2,3,,,,,-
2025,1159051000,특정계층이용시설,회원이용시설,본동에스에이치빌아파트경로당,서울특별시 동작구 노량진로22길 60,서울특별시 동작구 본동 490,71.97,40,,126.9497923,37.5107755,1,1,N,N,N,,-
2025,1159052000,공공시설,공공청사,노량진2동주민센터,서울특별시 동작구 장승배기로19길 48,서울특별시 동작구 노량진동 302-97,943,50,,126.9373525,37.5085193,2,2,Y,Y,N,,-
2025,1159053000,특정계층이용시설,회원이용시설,힐스테이트상도센트럴파크아파트경로당,서울특별시 동작구 상도로 346-1 ,서울특별시 동작구 상도동 531,208.46,52,,126.951015,37.495373,5,5,N,N,N,,-
2025,1159053000,특정계층이용시설,회원이용시설,중앙하이츠아파트경로당,서울특별시 동작구 상도로 320,서울특별시 동작구 상도동 415,71.92,18,,126.949748,37.500024,2,1,N,N,N,,-
2025,1159053000,특정계층이용시설,회원이용시설,래미안상도3차아파트경로당,서울특별시 동작구 상도로53길 8,서울특별시 동작구 상도동 431,270,68,,126.953828,37.498377,2,2,N,N,N,,-
2025,1159053000,특정계층이용시설,회원이용시설,래미안상도2차아파트경로당,서울특별시 동작구 상도로55길 47,서울특별시 동작구 상도동 421,85.38,21,,126.95808,37.498142,2,2,N,N,N,,-
2025,1159053000,특정계층이용시설,회원이용시설,대림아파트경로당,서울특별시 동작구 상도로60길 20,서울특별시 동작구 상도동 411,68,17,,126.954029,37.49323,2,1,N,N,N,,-
2025,1159053000,특정계층이용시설,회원이용시설,삼호아파트경로당,서울특별시 동작구 상도로 407,서울특별시 동작구 상도동 408,98.76,25,,126.958097,37.493064,3,2,N,N,N,,-
2025,1159053000,특정계층이용시설,회원이용시설,상도현대아파트경로당,서울특별시 동작구 사당로2길 2-32 ,서울특별시 동작구 상도동 412,69.25,17,,126.959486,37.494238,2,1,N,N,N,,-
2025,1159053000,특정계층이용시설,회원이용시설,삼환나우빌아파트경로당,서울특별시 동작구 상도로55길 25,서울특별시 동작구 상도동 520,111.01,28,,126.956908,37.498434,1,1,N,N,N,,-
2025,1159053000,특정계층이용시설,회원이용시설,힐스테이트상도프레스티지,서울특별시 동작구 상도로 346-2 ,서울특별시 동작구 상도동 533,141.25,35,,126.94854,37.496008,3,4,N,N,N,,-
2025,1159053000,공공시설,복지?문화?체육시설,상도은빛복지관,서울특별시 동작구 매봉로 36,서울특별시 동작구 상도1동 535,148,45,,126.9513111,37.5065081,4,2,N,N,N,,-
2025,1159053000,공공시설,복지?문화?체육시설,김영삼도서관,서울특별시 동작구 매봉로 1,서울특별시 동작구 상도1동 611,"6,045.90",245,,126.9500195,37.5055552,1,77,N,N,N,,-
2025,1159053000,공공시설,공공청사,상도1동주민센터,서울특별시 동작구 상도로53길 9,서울특별시 동작구 상도동 437,624,50,,126.953069,37.4981222,0,1,Y,Y,N,,-
2025,1159053000,특정계층이용시설,회원이용시설,상도1동경로당,서울특별시 동작구 상도로38길 86,서울특별시 동작구 상도동 159-282,155.22,39,,126.9482213,37.5003623,2,3,,,,,-
2025,1159053000,특정계층이용시설,회원이용시설,터널경로당,서울특별시 동작구 매봉로 36,서울특별시 동작구 상도1동 535,39,31,,126.9513107,37.5065189,4,2,N,N,N,,-
2025,1159053000,특정계층이용시설,회원이용시설,청송경로당,서울특별시 동작구 상도로52길 23,서울특별시 동작구 상도동 471-7,192.72,48,,126.9510114,37.4972114,6,5,N,N,N,,-
2025,1159053000,공공시설,복지?문화?체육시설,상도종합사회복지관,서울특별시 동작구 상도로39가길 7,서울특별시 동작구 상도1동 456,405.6,30,,126.9496932,37.502493,4,5,Y,Y,N,,-
2025,1159054000,특정계층이용시설,회원이용시설,파크엘아파트경로당,서울특별시 동작구 양녕로 220,서울특별시 동작구 상도동 904,294.6,60,,126.947207,37.500712,0,2,N,N,N,,-
2025,1159054000,특정계층이용시설,회원이용시설,이편한세상상도노빌리티아파트경로당,서울특별시 동작구 만양로 6,서울특별시 동작구 상도동 903,238.69,70,,126.948382,37.505359,1,5,N,N,N,,-
2025,1159054000,특정계층이용시설,회원이용시설,동원베네스트아파트경로당,서울특별시 동작구 상도로34길 42,서울특별시 동작구 상도동 528,44.47,20,,126.944387,37.502944,1,2,N,N,N,,-
2025,1159054000,특정계층이용시설,회원이용시설,브라운스톤상도아파트경로당,서울특별시 동작구 상도로31길 19,서울특별시 동작구 상도동 527,159,60,,126.943811,37.506011,2,1,N,N,N,,-
2025,1159054000,특정계층이용시설,회원이용시설,상도더샵아파트경로당,서울특별시 동작구 장승배기로10길 130,서울특별시 동작구 상도동 521,159,60,,126.943048,37.502127,2,3,N,N,N,,-
2025,1159054000,특정계층이용시설,회원이용시설,상도래미안1차아파트경로당,서울특별시 동작구 등용로 37,서울특별시 동작구 상도동 450,151.88,60,,126.934045,37.504633,2,1,N,N,N,,-
2025,1159054000,특정계층이용시설,회원이용시설,아이파크아파트경로당,서울특별시 동작구 장승배기로 26,서울특별시 동작구 상도동 416,138,60,,126.942933,37.500855,2,2,N,N,N,,-
2025,1159054000,공공시설,공공청사,상도2동주민센터,서울특별시 동작구 상도로 211,서울특별시 동작구 상도동 25-48,636,50,,126.9423314,37.5054945,6,3,Y,Y,N,,-
2025,1159054000,특정계층이용시설,회원이용시설,상도2동경로당,서울특별시 동작구 양녕로36길 13,서울특별시 동작구 상도동 159-330,346.33,80,,126.9461932,37.5022189,3,2,N,N,N,,-
2025,1159054000,특정계층이용시설,회원이용시설,낙원경로당,서울특별시 동작구 상도로30길 73,서울특별시 동작구 상도동 28-24,177.82,60,,126.9448461,37.5039572,2,2,N,N,N,,-
2025,1159054000,특정계층이용시설,회원이용시설,장수경로당,서울특별시 동작구 상도로15길 76,서울특별시 동작구 상도동 358-15,235.71,80,,126.9353919,37.5037088,4,2,N,N,N,,-
2025,1159054000,특정계층이용시설,회원이용시설,래미안1차108동아파트경로당,"서울특별시 동작구  등용로  37   (상도동, 상도동래미안1차아파트)",서울특별시 동작구 상도동 447,113,60,,126.9330462,37.5052621,2,3,N,N,N,,-
2025,1159055000,특정계층이용시설,회원이용시설,쌍용스윗닷홈아파트경로당,서울특별시 동작구 상도로 107,서울특별시 동작구 상도동 418,111.7,65,,126.932006,37.500917,2,1,N,N,N,,-
2025,1159055000,특정계층이용시설,회원이용시설,갑을명가1차아파트경로당,서울특별시 동작구 국사봉길 178,서울특별시 동작구 상도동 458,35.54,39,,126.934245,37.493561,2,2,N,N,N,,-
2025,1159055000,공공시설,공공청사,상도3동주민센터,서울특별시 동작구 성대로2길 11,서울특별시 동작구 상도동 315-37,408.63,50,,126.9313412,37.4992063,2,13,Y,Y,N,,-
2025,1159055000,특정계층이용시설,회원이용시설,상도3동경로당,서울특별시 동작구 국사봉1길 221-7 ,서울특별시 동작구 상도동 283-226,124.25,40,,126.9363305,37.4934517,2,2,N,N,N,,-
2025,1159055000,특정계층이용시설,회원이용시설,성대경로당,서울특별시 동작구 상도로13길 16,서울특별시 동작구 상도동 336-5,180.15,59,,126.9302762,37.5012735,5,4,N,N,N,,-
2025,1165056000,특정계층이용시설,회원이용시설,반포1동경로당,서울특별시 서초구 사평대로55길 90,서울특별시 서초구 반포동 724-12,115,20,,127.0212779,37.5078959,0,4,N,N,N,,-
2025,1165057000,특정계층이용시설,회원이용시설,반포2동경로당시니어라운지,서울특별시 서초구 신반포로15길 28,서울특별시 서초구 반포동 4-2,,,,126.9948882,37.505098,0,4,N,N,N,,-
2025,1165057000,특정계층이용시설,회원이용시설,반포2동경로당,서울특별시 서초구 신반포로15길 28,서울특별시 서초구 반포동 4-2,231,30,,126.994826,37.5050769,0,4,N,N,N,,-
2025,1165058000,특정계층이용시설,회원이용시설,반포3동경로당시니어라운지,서울특별시 서초구 신반포로23길 48,서울특별시 서초구 잠원동 72-1,,,,127.0035705,37.5093407,4,2,,,,,-
2025,1165058000,특정계층이용시설,회원이용시설,반포3동경로당,서울특별시 서초구 신반포로23길 48,서울특별시 서초구 잠원동 72-1,82,15,,127.0032854,37.5093531,4,2,,,,,-
2025,1165058000,공공시설,공공청사,반포3동주민센터,서울특별시 서초구 신반포로23길 78,서울특별시 서초구 잠원동 71-7,270,30,,127.0055541,37.5120789,0,3,,Y,,,-
2025,1165058100,특정계층이용시설,회원이용시설,현대동궁아파트경로당,서울특별시 서초구 사평대로 154,서울특별시 서초구 반포동 64-5,98,6,,127.002125,37.500415,1,1,,,,,-
2025,1165058100,특정계층이용시설,회원이용시설,반포4동경로당,서울특별시 서초구 사평대로26길 9-14 ,서울특별시 서초구 반포동 535-12,49,10,,126.9994709,37.4996293,1,1,,,,,-
2025,1165059000,특정계층이용시설,회원이용시설,롯데캐슬헤론아파트경로당,서울특별시 서초구 동광로1길 112,서울특별시 서초구 방배동 754-1,150,30,,126.984519,37.49695,6,2,,,,,-
2025,1165059000,특정계층이용시설,회원이용시설,서초구립기녕당경로당,서울특별시 서초구 방배중앙로 159-6 ,서울특별시 서초구 방배동 778-16,110,15,,126.9859304,37.493331,1,2,,Y,,,-
2025,1165060000,특정계층이용시설,회원이용시설,소정회경로당,서울특별시 서초구 효령로25길 50,서울특별시 서초구 방배동 921-1,28,6,,126.993392,37.483321,1,1,N,N,N,,-
2025,1165060000,특정계층이용시설,회원이용시설,방배브라운경로당,서울특별시 서초구 방배로19길 67,서울특별시 서초구 방배동 930-1,45,10,,126.992007,37.483534,0,1,N,N,N,,-
2025,1159060500,공공시설,공공청사,흑석동주민센터,서울특별시 동작구 흑석한강로 11,서울특별시 동작구 흑석동 335-2,736.71,50,,126.9665907,37.5057831,4,6,Y,Y,N,,-
2025,1159060500,특정계층이용시설,회원이용시설,흑석경로당,서울특별시 동작구 서달로13길 17,서울특별시 동작구 흑석동 181-23,389.48,80,,126.961876,37.5084509,4,2,N,N,N,,-
2025,1159060500,특정계층이용시설,회원이용시설,달마경로당,서울특별시 동작구 서달로 54-15 ,서울특별시 동작구 흑석동 256-1,99.08,40,,126.9616631,37.4990849,2,3,N,N,N,,-
2025,1159060500,특정계층이용시설,회원이용시설,비개경로당,서울특별시 동작구 현충로12길 106-8 ,서울특별시 동작구 흑석동 295-2,284.75,80,,126.9686838,37.5039975,2,2,N,N,N,,-
2025,1159060500,특정계층이용시설,회원이용시설,송림경로당,서울특별시 동작구 서달로2길 29,서울특별시 동작구 흑석동 327,82.51,40,,126.9632142,37.5011847,3,2,N,N,N,,-
2025,1159060500,특정계층이용시설,회원이용시설,해피경로당,서울특별시 동작구 흑석로13마길 61,서울특별시 동작구 흑석동 194-13,92.27,40,,126.95888,37.507416,2,3,N,N,N,,-
2025,1159062000,특정계층이용시설,회원이용시설,르메이에르아파트경로당,서울특별시 동작구 사당로20길 119,서울특별시 동작구 사당동 1141,23.04,5,,126.973741,37.478459,2,1,N,N,N,,-
2025,1159062000,공공시설,공공청사,사당1동주민센터,서울특별시 동작구 동작대로17길 28,서울특별시 동작구 사당동 1004-52,472.27,50,,126.978693,37.4831526,1,1,Y,Y,N,,-
2025,1159062000,특정계층이용시설,회원이용시설,송학경로당(사당동),서울특별시 동작구 동작대로9가길 24-4 ,서울특별시 동작구 사당동 1027-23,224.4,56,,126.9789173,37.4797852,6,2,N,N,N,,-
2025,1159062000,공공시설,복지?문화?체육시설,사당어르신종합복지관,서울특별시 동작구 남부순환로 2081,서울특별시 동작구 사당동 1044-42,255.84,50,,126.9798592,37.477053,0,6,Y,Y,N,,-
2025,1159062000,특정계층이용시설,회원이용시설,사당1동경로당,서울특별시 동작구 사당로20길 132,서울특별시 동작구 사당동 316-40,137.27,30,,126.973231,37.4788873,2,1,N,N,N,,-
2025,1159063000,특정계층이용시설,회원이용시설,동작대로39길22,서울특별시 동작구 동작대로39길 22,서울특별시 동작구 동작동 333,179.1,30,,126.979922,37.494502,2,4,N,N,N,,-
2025,1159063000,특정계층이용시설,회원이용시설,금강KCC아파트경로당,서울특별시 동작구 동작대로39가길 55,서울특별시 동작구 동작동 331,39,30,,126.978561,37.494027,1,1,N,N,N,,-
2025,1159060500,특정계층이용시설,회원이용시설,우리유앤미아파트경로당,서울특별시 동작구 서달로 83,서울특별시 동작구 흑석동 329,49.84,20,,126.95956,37.500705,0,2,N,N,N,,-
2025,1159060500,공공시설,복지?문화?체육시설,까망돌도서관,서울특별시 동작구 서달로 129,서울특별시 동작구 흑석동 340-1,"3,317.10",161,,126.9605469,37.5050922,1,54,N,N,N,,-
2025,1159063000,특정계층이용시설,회원이용시설,극동아파트경로당,서울특별시 동작구 동작대로29길 119,서울특별시 동작구 사당동 105,100,80,,126.973992,37.490429,5,2,N,N,N,,-
2025,1159063000,특정계층이용시설,회원이용시설,우성3단지아파트경로당,서울특별시 동작구 동작대로29길 115,서울특별시 동작구 사당동 105,100,80,,126.975655,37.490286,5,2,N,N,N,,-
2025,1159063000,특정계층이용시설,회원이용시설,사당신동아A경로당,서울특별시 동작구 동작대로29길 110,서울특별시 동작구 사당동 105-2,41,49,,126.978162,37.489519,2,1,N,N,N,,-
2025,1159063000,공공시설,공공청사,사당2동주민센터,서울특별시 동작구 동작대로29길 52,서울특별시 동작구 사당동 105-12,866.85,50,,126.9792455,37.4887525,6,5,Y,Y,N,,-
2025,1159063000,공공시설,복지?문화?체육시설,동작이수사회복지관,서울특별시 동작구 동작대로35차길 7,서울특별시 동작구 사당동 52-3,169.79,60,,126.976864,37.4931422,6,5,Y,Y,N,,-
2025,1159063000,특정계층이용시설,회원이용시설,배나무골경로당,서울특별시 동작구 동작대로29바길 3,서울특별시 동작구 사당동 77-24,247.55,80,,126.9804665,37.4896695,12,4,N,N,N,,-
2025,1159063000,특정계층이용시설,회원이용시설,남성경로당,서울특별시 동작구 동작대로25길 48,서울특별시 동작구 사당동 708-490,121.62,80,,126.9798994,37.4853063,7,2,N,N,N,,-
2025,1159064000,특정계층이용시설,회원이용시설,래미안로이파크아파트경로당,서울특별시 동작구 사당로23길 112,서울특별시 동작구 사당동 1159,183,80,,126.973399,37.488496,0,4,N,N,N,,-
2025,1159064000,특정계층이용시설,회원이용시설,이수역리가아파트경로당,서울특별시 동작구 사당로27길 130,서울특별시 동작구 사당동 1157,106.97,50,,126.973069,37.489538,2,1,N,N,N,,-
2025,1159064000,특정계층이용시설,회원이용시설,사당두산위브트레지움아파트경로당,서울특별시 동작구 사당로13길 31,서울특별시 동작구 사당동 1131,107.31,60,,126.970404,37.485227,3,3,N,N,N,,-
2025,1159064000,특정계층이용시설,회원이용시설,현대아파트경로당,서울특별시 동작구 사당로17길 111,서울특별시 동작구 사당동 169-32,50,20,,126.970142,37.488159,2,1,N,N,N,,-
2025,1159064000,특정계층이용시설,회원이용시설,사당대림아파트경로당,서울특별시 동작구 사당로23길 137,서울특별시 동작구 사당동 169-8,87,40,,126.97226,37.487397,3,2,N,N,N,,-
2025,1159064000,특정계층이용시설,회원이용시설,동작삼성래미안아파트경로당,서울특별시 동작구 사당로23바길 9,서울특별시 동작구 사당동 1133,133.03,60,,126.970515,37.489172,5,2,N,N,N,,-
2025,1159064000,특정계층이용시설,회원이용시설,경남아너스빌아파트(대아)경로당,서울특별시 동작구 사당로9가길 82,서울특별시 동작구 사당동 1134,155,60,,126.967835,37.48829,3,1,N,N,N,,-
2025,1159064000,특정계층이용시설,회원이용시설,사당롯데캐슬2차아파트경로당,서울특별시 동작구 사당로27길 181,서울특별시 동작구 사당동 1149,49.89,20,,126.971502,37.490201,1,2,N,N,N,,-
2025,1159064000,특정계층이용시설,회원이용시설,삼화경로당,서울특별시 동작구 사당로13길 42,서울특별시 동작구 사당동 1131-13,100.2,60,,126.9719025,37.4859376,3,2,N,N,N,,-
2025,1159064000,특정계층이용시설,회원이용시설,삼익경로당,서울특별시 동작구 사당로27길 190,서울특별시 동작구 사당동 1132,102,60,,126.9723165,37.4901814,4,1,N,N,N,,-
2025,1159064000,특정계층이용시설,회원이용시설,삼일공원경로당,서울특별시 동작구 사당로23길 93 (삼일(3~1)공원),서울특별시 동작구 사당동 산 24-17,125.5,60,,126.974415,37.485747,2,2,N,N,N,,-
2025,1159064000,특정계층이용시설,회원이용시설,학수경로당,서울특별시 동작구 사당로27길 217,서울특별시 동작구 사당동 177-1,62.21,40,,126.9706893,37.491481,4,1,N,N,N,,-
2025,1159065000,특정계층이용시설,회원이용시설,진흥아파트경로당,서울특별시 동작구 사당로16아길 43,서울특별시 동작구 사당동 1142,20,20,,126.969165,37.480296,4,1,N,N,N,,-
2025,1159065000,특정계층이용시설,회원이용시설,휴먼시아아파트경로당,서울특별시 동작구 사당로16길 96,서울특별시 동작구 사당동 1154,127.8,20,,126.970175,37.478956,3,1,N,N,N,,-
2025,1159065000,특정계층이용시설,회원이용시설,삼익그린뷰아파트경로당,서울특별시 동작구 남부순환로255길 21,서울특별시 동작구 사당동 1150,74.84,40,,126.969334,37.477278,4,2,N,N,N,,-
2025,1159065000,특정계층이용시설,회원이용시설,사당KCC아파트경로당,서울특별시 동작구 사당로20나길 57,서울특별시 동작구 사당동 1153,30,20,,126.97373,37.481336,1,1,N,N,N,,-
2025,1159065000,공공시설,공공청사,사당4동주민센터,서울특별시 동작구 사당로16아길 6,서울특별시 동작구 사당동 300-8,271,50,,126.9716274,37.4809662,3,3,Y,Y,N,,-
2025,1159065000,공공시설,복지?문화?체육시설,사당종합사회복지관,서울특별시 동작구 사당로14길 20,서울특별시 동작구 사당동 268-6,41.6,20,,126.9715021,37.483275,1,1,Y,Y,N,,-
2025,1159065000,특정계층이용시설,회원이용시설,신남성경로당,서울특별시 동작구 사당로16길 56,서울특별시 동작구 사당동 297-17,258.99,70,,126.9720229,37.4813537,5,4,,,,,-
2025,1159065000,특정계층이용시설,회원이용시설,사당4동경로당,서울특별시 동작구 사당로16라길 9,서울특별시 동작구 사당동 278-34,144.62,60,,126.9703237,37.4826508,2,1,N,N,N,,-
2025,1159065100,특정계층이용시설,회원이용시설,삼호그린아파트경로당,서울특별시 동작구 사당로2가길 188,서울특별시 동작구 사당동 1138,87.44,21,,126.965322,37.48609,3,1,N,N,N,,-
2025,1159065100,특정계층이용시설,회원이용시설,남해오네뜨아파트경로당,서울특별시 동작구 사당로2가길 173,서울특별시 동작구 사당동 1143,58.26,14,,126.965593,37.487033,2,1,N,N,N,,-
2025,1159065100,특정계층이용시설,회원이용시설,제일아파트경로당,서울특별시 동작구 사당로16다길 57,서울특별시 동작구 사당동 240-15,30,7,,126.969535,37.482898,1,1,,,,,-
2025,1159065100,특정계층이용시설,회원이용시설,사당자이아파트경로당,서울특별시 동작구 사당로2가길 102,서울특별시 동작구 사당동 1139,66.69,16,,126.962327,37.488729,2,2,N,N,N,,-
2025,1159065100,공공시설,복지?문화?체육시설,사당솔밭도서관,서울특별시 동작구 솔밭로 86,서울특별시 동작구 사당동 708-1188,"1,724.80",280,,126.9673306,37.4840426,1,23,N,N,N,,-
2025,1159065100,공공시설,공공청사,사당5동주민센터,서울특별시 동작구 사당로2가길 219,서울특별시 동작구 사당동 228-11,"1,269.50",50,,126.9670068,37.4856322,10,2,Y,Y,N,,-
2025,1159065100,특정계층이용시설,회원이용시설,사당5동구립경로당,서울특별시 동작구 사당로6길 3-8 ,서울특별시 동작구 사당동 214-5,299.49,80,,126.9675831,37.4863757,4,2,N,N,N,,-
2025,1159066000,특정계층이용시설,회원이용시설,대방2차e편한세상아파트경로당,서울특별시 동작구 알마타길 53,서울특별시 동작구 대방동 507,21,20,,126.93093,37.512065,1,1,N,N,N,,-
2025,1159066000,특정계층이용시설,회원이용시설,대방대림아파트경로당,서울특별시 동작구 여의대방로44길 10,서울특별시 동작구 대방동 501,168,60,,126.924744,37.507319,4,1,N,N,N,,-
2025,1159066000,특정계층이용시설,회원이용시설,우정아파트경로당,서울특별시 동작구 여의대방로62길 23,서울특별시 동작구 대방동 505,101,60,,126.929731,37.514217,1,1,N,N,N,,-
2025,1159066000,특정계층이용시설,회원이용시설,성원아파트경로당,서울특별시 동작구 여의대방로 256,서울특별시 동작구 대방동 500,30,20,,126.926075,37.509582,0,1,N,N,N,,-
2025,1159066000,특정계층이용시설,회원이용시설,대방2차현대아파트경로당,서울특별시 동작구 알마타길 58,서울특별시 동작구 대방동 506,76,40,,126.931266,37.510792,3,1,N,N,N,,-
2025,1159066000,특정계층이용시설,회원이용시설,대방동현대1차아파트경로당,서울특별시 동작구 등용로 127,서울특별시 동작구 대방동 502,114.48,60,,126.930784,37.512705,2,1,N,N,N,,-
2025,1159066000,특정계층이용시설,회원이용시설,경남아너스빌아파트경로당,서울특별시 동작구 여의대방로54길 6,서울특별시 동작구 대방동 512,82,40,,126.925693,37.511451,2,1,N,N,N,,-
2025,1159066000,특정계층이용시설,회원이용시설,코오롱하늘채아파트경로당,서울특별시 동작구 여의대방로24다길 40,서울특별시 동작구 대방동 509,38,44,,126.923129,37.498552,1,1,N,N,N,,-
2025,1159066000,특정계층이용시설,회원이용시설,대방주공2단지아파트경로당,서울특별시 동작구 여의대방로44길 47,서울특별시 동작구 대방동 503,126,60,,126.929493,37.509536,3,3,N,N,N,,-
2025,1159066000,공공시설,공공청사,대방동주민센터,서울특별시 동작구  여의대방로44길  20   (대방동),서울특별시 동작구 대방동 501-2,956.55,50,,126.9263395,37.5081683,0,4,Y,Y,N,,-
2025,1159066000,공공시설,복지?문화?체육시설,동작종합사회복지관,서울특별시 동작구 등용로 47,서울특별시 동작구 대방동 5-1,115,60,,126.9333427,37.5057668,4,3,Y,Y,N,,-
2025,1159066000,공공시설,복지?문화?체육시설,대방종합사회복지관,서울특별시 동작구 여의대방로44길 47,서울특별시 동작구 대방동 503,22.3,15,,126.9300927,37.5101708,3,3,N,N,N,,-
2025,1159066000,특정계층이용시설,회원이용시설,대방중앙경로당,서울특별시 동작구 여의대방로24라길 4,서울특별시 동작구 대방동 407-48,204.36,80,,126.9226176,37.4981152,3,2,N,N,N,,-
2025,1159066000,특정계층이용시설,회원이용시설,북대방경로당,서울특별시 동작구 여의대방로54길 24,서울특별시 동작구 대방동 346-19,122.8,60,,126.9277976,37.5121291,1,1,N,N,N,,-
2025,1159066000,특정계층이용시설,회원이용시설,대방주공1단지아파트경로당,서울특별시 동작구 여의대방로44길 47,서울특별시 동작구 대방동 503,154.8,60,,126.930109,37.510172,3,3,N,N,N,,-
2025,1159066000,특정계층이용시설,회원이용시설,신대방2동경로당,서울특별시 동작구 여의대방로24가길 2,서울특별시 동작구 대방동 407-8,290,72,,126.9212576,37.4982089,7,2,N,N,N,,-
2025,1159066000,공공시설,복지?문화?체육시설,동작노인종합복지관,서울특별시 동작구 상도로11길 7,서울특별시 동작구 대방동 335-10,26.3,25,,126.9291348,37.5004191,1,2,Y,Y,N,,-
2025,1159067000,특정계층이용시설,회원이용시설,숲속마을신동아파밀리에경로당,서울특별시 동작구 여의대방로10길 100,서울특별시 동작구 신대방동 717,74.47,74,,126.914552,37.49172,1,2,N,N,N,,-
2025,1159067000,특정계층이용시설,회원이용시설,동작상떼빌아파트경로당,서울특별시 동작구 신대방1가길 38,서울특별시 동작구 신대방동 719,164.97,164,,126.906882,37.487546,2,3,N,N,N,,-
2025,1159067000,특정계층이용시설,회원이용시설,보라매롯데낙천대아파트경로당,서울특별시 동작구 여의대방로10길 38,서울특별시 동작구 신대방동 713,136.2,136,,126.913511,37.494307,2,1,N,N,N,,-
2025,1159067000,특정계층이용시설,회원이용시설,경남교수아파트경로당,서울특별시 동작구 여의대방로10길 14,서울특별시 동작구 신대방동 710,63,63,,126.913556,37.495982,2,2,N,N,N,,-
2025,1159067000,특정계층이용시설,회원이용시설,신대방현대아파트경로당,서울특별시 동작구 여의대방로 28,서울특별시 동작구 신대방동 707,93,93,,126.91223,37.494489,3,2,N,N,N,,-
2025,1159067000,특정계층이용시설,회원이용시설,우성2차아파트경로당,서울특별시 동작구 여의대방로 8,서울특별시 동작구 신대방동 565-21,119,119,,126.910359,37.492811,3,2,N,N,N,,-
2025,1159067000,특정계층이용시설,회원이용시설,우성1차아파트경로당,서울특별시 동작구 여의대방로 22,서울특별시 동작구 신대방동 565,125,125,,126.911647,37.492317,3,4,N,N,N,,-
2025,1159067000,특정계층이용시설,회원이용시설,현진에버빌아파트경로당,서울특별시 동작구 신대방1나길 45,서울특별시 동작구 신대방동 716,55.62,55,,126.906989,37.485964,2,2,,,,,-
2025,1159067000,특정계층이용시설,회원이용시설,경남아파트경로당,서울특별시 동작구 신대방길 85,서울특별시 동작구 신대방동 712,83,83,,126.908428,37.489394,2,2,,,,,-
2025,1159067000,공공시설,공공청사,신대방1동주민센터,서울특별시 동작구 신대방길 72,서울특별시 동작구 신대방동 604-8,749.49,60,,126.9100392,37.4889453,4,1,Y,Y,N,,-
2025,1159067000,특정계층이용시설,회원이용시설,신대방1동경로당,서울특별시 동작구 신대방1길 18,서울특별시 동작구 신대방동 693-10,162,162,,126.9106603,37.4868788,2,1,N,N,N,,-
2025,1159068000,특정계층이용시설,회원이용시설,신대방벽산아파트경로당,서울특별시 동작구 여의대방로22길 24,서울특별시 동작구 신대방동 709,24,15,,126.921723,37.497403,5,1,N,N,N,,-
2025,1159068000,특정계층이용시설,회원이용시설,보라매e편한세상아파트경로당,서울특별시 동작구 보라매로 70,서울특별시 동작구 신대방동 720,99.74,24,,126.928576,37.495494,3,1,N,N,N,,-
2025,1159068000,특정계층이용시설,회원이용시설,보라매파크빌아파트경로당,서울특별시 동작구 여의대방로10길 59,서울특별시 동작구 신대방동 711,79.27,19,,126.915544,37.494436,1,2,N,N,N,,-
2025,1159068000,특정계층이용시설,회원이용시설,한성아파트경로당,서울특별시 동작구 여의대방로10길 13,서울특별시 동작구 신대방동 470-8,40,10,,126.915233,37.495575,2,2,N,N,N,,-
2025,1159068000,공공시설,공공청사,신대방2동주민센터,서울특별시 동작구 여의대방로24길 76,서울특별시 동작구 신대방동 723,"1,030.00",50,,126.9245377,37.4984069,10,4,Y,Y,N,,-
2025,1162052500,특정계층이용시설,회원이용시설,보라매삼성(아)경로당,서울특별시 관악구 보라매로 62,서울특별시 관악구 봉천동 1698-1,79,10,,126.928062,37.494287,4,2,N,N,N,,02-879-5806
2025,1162052500,특정계층이용시설,회원이용시설,보라매경로당,서울특별시 관악구 봉천로21길 35,서울특별시 관악구 봉천동 662-109,366.05,46,,126.9340672,37.4884691,3,4,N,N,N,,02-879-5806
2025,1162052500,특정계층이용시설,회원이용시설,당곡경로당,서울특별시 관악구 당곡6길 37,서울특별시 관악구 봉천동 717-17,106,14,,126.9294321,37.4922219,6,2,N,N,N,,02-879-5806
2025,1162052500,공공시설,공공청사,보라매동주민센터,서울특별시 관악구 봉천로 279-8 ,서울특별시 관악구 봉천동 661,338,26,,126.9328046,37.4881672,2,1,Y,Y,N,,02-879-5806
2025,1162052500,특정계층이용시설,회원이용시설,관악노인종합복지관,서울특별시 관악구 보라매로 35,서울특별시 관악구 봉천동 726-3,424,106,,126.926328,37.4930298,0,2,N,N,N,,02-879-5806
2025,1162054500,특정계층이용시설,회원이용시설,관악현대(아)경로당,서울특별시 관악구 관악로 304,서울특별시 관악구 봉천동 1000,597,75,,126.958317,37.492234,5,4,N,N,N,,02-879-5806
2025,1162054500,특정계층이용시설,회원이용시설,푸르지오(아)경로당,서울특별시 동작구 관악로30길 27,서울특별시 관악구 봉천동 1717,221,28,,126.960168,37.486668,10,3,N,N,N,,02-879-5806
2025,1162054500,특정계층이용시설,회원이용시설,구립청림경로당,서울특별시 관악구 청림2길 37,서울특별시 관악구 봉천동 15-41,309.56,39,,126.9582866,37.4866666,3,3,,,,,02-879-5806
2025,1162054500,특정계층이용시설,회원이용시설,관악푸르지오삼오경로당,서울특별시 관악구 청림5길 28,서울특별시 관악구 봉천동 1717-1,215,27,,126.960243,37.489525,4,2,N,N,N,,02-879-5806
2025,1162054500,공공시설,공공청사,청림동주민센터,서울특별시 관악구 관악로40길 39,서울특별시 관악구 봉천동 1000,789.96,22,,126.9585971,37.4918447,5,4,N,N,N,,02-879-5806
2025,1162054500,공공시설,복지?문화?체육시설,봉천종합사회복지관,서울특별시 관악구 관악로 254,서울특별시 관악구 봉천동 37,140,20,,126.9575763,37.4866852,2,3,,Y,,,02-879-5806
2025,1162056500,특정계층이용시설,회원이용시설,관악동부센트레빌(아)경로당,서울특별시 관악구 은천로33길 5,서울특별시 관악구 봉천동 1719,89,11,,126.950794,37.487388,2,3,N,N,N,,02-879-5806
2025,1162056500,특정계층이용시설,회원이용시설,관악드림타운(아)경로당,서울특별시 관악구 성현로 80,서울특별시 관악구 봉천동 1712,324,41,,126.950163,37.489744,4,4,N,N,N,,02-879-5806
2025,1162056500,특정계층이용시설,회원이용시설,봉천벽산(아)2차경로당,서울특별시 관악구 구암5가길 49,서울특별시 관악구 봉천동 1716,92,12,,126.946086,37.4925,2,2,N,N,N,,02-879-5806
2025,1162056500,특정계층이용시설,회원이용시설,성현동아(아)1단지경로당,서울특별시 관악구 관악로 285,서울특별시 관악구 봉천동 1703,231,29,,126.954374,37.489467,3,3,,,,,02-879-5806
2025,1162056500,특정계층이용시설,회원이용시설,구암경로당,서울특별시 관악구 은천로23길 19,서울특별시 관악구 봉천동 480-111,122.32,16,,126.9480782,37.4876868,2,2,N,N,N,,02-879-5806
2025,1162056500,특정계층이용시설,회원이용시설,관악드림타운2단지(아)경로당,서울특별시 관악구 구암길 106,서울특별시 관악구 봉천동 1712-1,301,38,,126.948056,37.491697,7,4,N,N,N,,02-879-5806
2025,1162056500,특정계층이용시설,회원이용시설,성현동아(아)2단지경로당,서울특별시 관악구 관악로37길 20,서울특별시 관악구 봉천동 1703-1,76,10,,126.9562429,37.4879609,7,2,,,,,02-879-5806
2025,1162056500,특정계층이용시설,회원이용시설,성현경로당,서울특별시 관악구 은천로35길 40-3 ,서울특별시 관악구 봉천동 41-34,479,60,,126.954203,37.488021,8,7,N,N,N,,02-879-5806
2025,1162056500,공공시설,공공청사,성현동주민센터,서울특별시 관악구 구암길 38,서울특별시 관악구 봉천동 1712-9,358.08,32,,126.9481771,37.4895134,7,1,Y,Y,N,,02-879-5806
2025,1162056500,공공시설,복지?문화?체육시설,강감찬관악종합사회복지관,서울특별시 관악구 양녕로 70,서울특별시 관악구 봉천동 492-7,24,6,,126.9465844,37.488169,0,1,N,Y,N,,02-879-5806
2025,1162057500,공공시설,복지?문화?체육시설,관악시니어클럽,서울특별시 관악구 남부순환로247다길 60,서울특별시 관악구 봉천동 148-145,185.88,56,,126.964054,37.47869,3,2,N,N,N,,02-879-5806
2025,1162057500,특정계층이용시설,회원이용시설,관악파크푸르지오(아)경로당,서울특별시 관악구 행운10길 21,서울특별시 관악구 봉천동 1728,122,16,,126.961402,37.482901,2,1,N,N,N,,02-879-5806
2025,1162057500,특정계층이용시설,회원이용시설,신창경로당,서울특별시 관악구 행운1길 12,서울특별시 관악구 봉천동 1675-12,121,15,,126.958589,37.479951,4,5,N,N,N,,02-879-5806
2025,1162057500,특정계층이용시설,회원이용시설,"봉천우성(아)109,110동경로당",서울특별시 관악구 관악로30길 40,서울특별시 관악구 봉천동 1706-1,93,12,,126.961191,37.484758,4,2,N,N,N,,02-879-5806
2025,1162057500,특정계층이용시설,회원이용시설,원당경로당,서울특별시 관악구 남부순환로247다길 60,서울특별시 관악구 봉천동 148-145,177,22,,126.964113,37.478639,3,2,N,N,N,,02-879-5806
2025,1162057500,특정계층이용시설,회원이용시설,행운경로당,서울특별시 관악구 행운9길 34,서울특별시 관악구 봉천동 1724-2,113,14,,126.959638,37.483375,2,2,N,N,N,,02-879-5806
2025,1162057500,공공시설,공공청사,행운동주민센터,서울특별시 관악구 행운1길 43,서울특별시 관악구 봉천동 1670-7,690,26,,126.9570315,37.4806676,5,3,Y,Y,N,,02-879-5806
2025,1162058500,특정계층이용시설,회원이용시설,인헌(아)경로당,서울특별시 관악구 낙성대로15길 66,서울특별시 관악구 봉천동 1725,31,4,,126.962555,37.468064,4,1,N,N,N,,02-879-5806
2025,1162058500,특정계층이용시설,회원이용시설,백설경로당,서울특별시 관악구 관악로6길 50,서울특별시 관악구 봉천동 1606-11,63,8,,126.953496,37.476247,3,3,N,N,N,,02-879-5806
2025,1162058500,특정계층이용시설,회원이용시설,덕진경로당,서울특별시 관악구 남부순환로234길 37,서울특별시 관악구 봉천동 1621-23,147,19,,126.956821,37.4777001,1,6,N,N,N,,02-879-5806
2025,1162058500,공공시설,공공청사,낙성대동주민센터,서울특별시 관악구 낙성대로4가길 5,서울특별시 관악구 봉천동 1624-24,318,50,,126.9584068,37.4763038,4,1,Y,Y,N,,02-879-5806
2025,1162052500,공공시설,복지?문화?체육시설,관악구장애인종합복지관,서울특별시 관악구 남부순환로 1914,서울특별시 관악구 봉천동 1660-4,64.22,7,,126.9618457,37.4774484,2,1,N,N,N,,02-879-5806
2025,1162059500,특정계층이용시설,회원이용시설,건영6차(아)경로당,서울특별시 관악구 관악로 133,서울특별시 관악구 봉천동 1701,151,19,,126.95196,37.47709,4,2,N,N,N,,02-879-5806
2025,1162059500,특정계층이용시설,회원이용시설,갑을(아)경로당,서울특별시 관악구 관악로5길 42,서울특별시 관악구 봉천동 1700,71,9,,126.952148,37.475132,2,1,N,N,N,,02-879-5806
2025,1162059500,특정계층이용시설,회원이용시설,서울대입구아이원(아)경로당,서울특별시 관악구 청룡길 78,서울특별시 관악구 봉천동 1560-61,141,18,,126.944879,37.478378,5,2,N,N,N,,02-879-5806
2025,1162059500,특정계층이용시설,회원이용시설,삼성(아)경로당,서울특별시 관악구 관악로 125,서울특별시 관악구 봉천동 1591-2,52,7,,126.952135,37.476128,2,2,N,N,N,,02-879-5806
2025,1162059500,특정계층이용시설,회원이용시설,일선경로당,서울특별시 관악구 쑥고개로26길 24,서울특별시 관악구 봉천동 1587-7,130,17,,126.9495272,37.4778233,8,2,N,N,N,,02-879-5806
2025,1162059500,특정계층이용시설,회원이용시설,송현경로당,서울특별시 관악구 장군봉1길 45-6 ,서울특별시 관악구 봉천동 927-22,199,25,,126.942473,37.481889,6,3,N,N,N,,02-879-5806
2025,1162059500,공공시설,공공청사,청룡동주민센터,서울특별시 관악구 쑥고개로 44,서울특별시 관악구 봉천동 1539-1,"1,441.00",41,,126.9416233,37.4791345,6,5,Y,Y,N,,02-879-5806
2025,1162060500,특정계층이용시설,회원이용시설,벽산블루밍(아)1단지경로당,서울특별시 관악구 은천로 93,서울특별시 관악구 봉천동 1718,137,17,,126.944852,37.489478,4,2,,,,,02-879-5806
2025,1162060500,특정계층이용시설,회원이용시설,두산(아)2단지경로당,서울특별시 관악구 봉천로 387,서울특별시 관악구 봉천동 1708,190,24,,126.942868,37.48455,5,3,,,,,02-879-5806
2025,1162060500,특정계층이용시설,회원이용시설,벽산블루밍(아)2단지경로당,서울특별시 관악구 은천로 93,서울특별시 관악구 봉천동 1718,137,17,,126.944799,37.489382,4,2,,,,,02-879-5806
2025,1162060500,특정계층이용시설,회원이용시설,두산(아)1단지경로당,서울특별시 관악구 봉천로 387,서울특별시 관악구 봉천동 1708,178,23,,126.942801,37.48455,5,3,,,,,02-879-5806
2025,1162060500,특정계층이용시설,회원이용시설,벽산블루밍3차(아)경로당,서울특별시 관악구 은천로15길 24,서울특별시 관악구 봉천동 1720,56,7,,126.944437,37.488413,2,2,,,,,02-879-5806
2025,1162060500,특정계층이용시설,회원이용시설,국지경로당,서울특별시 관악구 국회단지21길 14,서울특별시 관악구 봉천동 635-68,344,43,,126.941507,37.49026,4,3,N,N,N,,02-879-5806
2025,1162060500,특정계층이용시설,회원이용시설,은천경로당,서울특별시 관악구 봉천로27길 45,서울특별시 관악구 봉천동 936-6,111,14,,126.940835,37.485758,4,3,N,N,N,,02-879-5806
2025,1162060500,특정계층이용시설,회원이용시설,벽산블루밍(아)3단지경로당,서울특별시 관악구 양녕로 117,서울특별시 관악구 봉천동 1718-1,137,17,,126.9426935,37.4920548,2,2,,,,,02-879-5806
2025,1162060500,특정계층이용시설,회원이용시설,두산(아)임대3단지경로당,서울특별시 관악구 양녕로 31,서울특별시 관악구 봉천동 1708-2,99,13,,126.945793,37.485155,4,2,,,,,02-879-5806
2025,1162060500,특정계층이용시설,회원이용시설,국사봉경로당,서울특별시 관악구 은천로15길 13-2 ,서울특별시 관악구 봉천동 622-70,202,26,,126.943705,37.487504,16,3,N,N,N,,02-879-5806
2025,1162060500,공공시설,공공청사,은천동주민센터,서울특별시 관악구 봉천로33나길 30,서울특별시 관악구 봉천동 905-29,48,35,,126.9424147,37.4853115,1,1,Y,Y,N,,02-879-5806
2025,1162061500,특정계층이용시설,회원이용시설,신봉(아)경로당,서울특별시 관악구 양녕로6나길 18,서울특별시 관악구 봉천동 1705,55,7,,126.949602,37.484922,1,2,N,N,N,,02-879-5806
2025,1162061500,특정계층이용시설,회원이용시설,중앙경로당,서울특별시 관악구 은천로26길 14,서울특별시 관악구 봉천동 457-208,199.54,25,,126.9504127,37.4859292,4,3,N,N,N,,02-879-5806
2025,1162061500,특정계층이용시설,회원이용시설,장수경로당,서울특별시 관악구 양녕로6다길 11-4 ,서울특별시 관악구 봉천동 1512-9,94,12,,126.949368,37.484464,5,3,N,N,N,,02-879-5806
2025,1162061500,공공시설,공공청사,중앙동주민센터,서울특별시 관악구 양녕로6다길 7,서울특별시 관악구 봉천동 1512-7,704.47,14,,126.9497545,37.4841932,4,2,Y,Y,N,,02-879-5806
2025,1162061500,공공시설,복지?문화?체육시설,중앙사회복지관,서울특별시 관악구 봉천로41길 33,서울특별시 관악구 봉천동 890-7,66,17,,126.948071,37.4843604,2,1,N,Y,N,,02-879-5806
2025,1162062500,특정계층이용시설,회원이용시설,반석푸른숲경로당,서울특별시 관악구 인헌16다길 14,서울특별시 관악구 봉천동 1723,41,5,,126.965834,37.468659,1,1,N,N,N,,02-879-5806
2025,1162062500,특정계층이용시설,회원이용시설,인헌경로당,서울특별시 관악구 낙성대역3길 6-6 ,서울특별시 관악구 봉천동 1709-5,200,25,,126.9618197,37.4758529,3,2,N,N,N,,02-879-5806
2025,1162062500,특정계층이용시설,회원이용시설,덕양경로당,서울특별시 관악구 인헌4길 20,서울특별시 관악구 봉천동 1637-13,400,50,,126.965907,37.474825,7,4,N,N,N,,02-879-5806
2025,1162062500,특정계층이용시설,회원이용시설,밤골경로당,서울특별시 관악구 인헌3가길 8,서울특별시 관악구 봉천동 1642-4,98,13,,126.967356,37.4739,4,2,N,N,N,,02-879-5806
2025,1162062500,공공시설,공공청사,인헌동주민센터,서울특별시 관악구 남부순환로246가길 20,서울특별시 관악구 봉천동 1635-40,500,28,,126.965331,37.475118,4,4,Y,Y,N,,02-879-5806
2025,1162063000,특정계층이용시설,회원이용시설,구립예촌경로당,서울특별시 관악구 남현길 41,서울특별시 관악구 남현동 1083-1,198,25,,126.9768906,37.4745367,3,6,N,N,N,,02-879-5806
2025,1162063000,특정계층이용시설,회원이용시설,관수경로당,서울특별시 관악구 승방3나길 14,서울특별시 관악구 남현동 602-196,63,8,,126.98054,37.47288,2,2,N,N,N,,02-879-5806
2025,1162063000,공공시설,공공청사,남현동주민센터,서울특별시 관악구 남현1가길 29,서울특별시 관악구 남현동 1086-1,172,20,,126.9778753,37.4746879,0,1,Y,Y,N,,02-879-5806
2025,1162064500,특정계층이용시설,회원이용시설,신본경로당,서울특별시 관악구 남부순환로200다길 7,서울특별시 관악구 신림동 1510-6,353,44,,126.9364927,37.4825952,2,5,N,N,N,,02-879-5806
2025,1162064500,특정계층이용시설,회원이용시설,서원경로당,서울특별시 관악구 서원3길 10,서울특별시 관악구 신림동 409-26,238,30,,126.933228,37.476832,3,6,N,N,N,,02-879-5806
2025,1162064500,특정계층이용시설,회원이용시설,신관경로당,서울특별시 관악구 신림로48길 25,서울특별시 관악구 신림동 91-50,396,50,,126.933451,37.479402,0,4,N,N,N,,02-879-5806
2025,1162064500,공공시설,공공청사,서원동주민센터,서울특별시 관악구 신림로 282,서울특별시 관악구 신림동 1641-65,"1,311.00",43,,126.9312704,37.4797827,4,3,Y,Y,N,,02-879-5806
2025,1162065500,특정계층이용시설,회원이용시설,동부(아)경로당,서울특별시 관악구 신원로 26,서울특별시 관악구 신림동 1695,84,11,,126.929185,37.480546,3,1,N,N,N,,02-879-5806
2025,1162065500,특정계층이용시설,회원이용시설,신일경로당,서울특별시 관악구 문성로32길 18,서울특별시 관악구 신림동 1630-30,362,46,,126.9286988,37.4785019,4,2,N,N,N,,02-879-5806
2025,1162065500,특정계층이용시설,회원이용시설,신원경로당,서울특별시 관악구 남부순환로170길 6,서울특별시 관악구 신림동 1581-6,254,32,,126.924382,37.48269,4,2,N,N,N,,02-879-5806
2025,1162066500,특정계층이용시설,회원이용시설,신림현대(아)경로당,서울특별시 관악구 신림로29길 8,서울특별시 관악구 신림동 1694,298,37,,126.932457,37.475122,4,3,N,N,N,,02-879-5806
2025,1162066500,특정계층이용시설,회원이용시설,서림경로당,서울특별시 관악구 서림3길 47,서울특별시 관악구 신림동 103-141,52,7,,126.9406227,37.472323,1,2,N,N,N,,02-879-5806
2025,1162066500,특정계층이용시설,회원이용시설,행복경로당,서울특별시 관악구 신림로36길 12-10 ,서울특별시 관악구 신림동 94-115,202.56,26,,126.9379322,37.4756227,3,3,N,N,N,,02-879-5806
2025,1162066500,공공시설,공공청사,서림동주민센터,서울특별시 관악구 신림로29길 6,서울특별시 관악구 신림동 1694-7,780,23,,126.9349893,37.4749906,4,4,Y,Y,N,,02-879-5806
2025,1162068500,특정계층이용시설,회원이용시설,신림우방(아)경로당,서울특별시 관악구 관천로27길 2,서울특별시 관악구 신림동 1715,109,14,,126.918799,37.488931,3,2,N,N,N,,02-879-5806
2025,1162068500,특정계층이용시설,회원이용시설,구립어울림경로당,서울특별시 관악구 남부순환로149길 34-2 ,서울특별시 관악구 신림동 524-14,224,28,,126.9154943,37.4835879,2,4,N,N,N,,02-879-5806
2025,1162068500,특정계층이용시설,회원이용시설,신사경로당,서울특별시 관악구 조원로 151-1 ,서울특별시 관악구 신림동 480-21,695,87,,126.9191148,37.4859096,3,4,N,N,N,,02-879-5806
2025,1162068500,공공시설,공공청사,신사동주민센터,서울특별시 관악구 조원로 142,서울특별시 관악구 신림동 492-4,196,38,,126.9181,37.4855,4,1,Y,Y,N,,02-879-5806
2025,1162069500,특정계층이용시설,회원이용시설,보라매갑을(아)경로당,서울특별시 관악구 관천로24길 3,서울특별시 관악구 신림동 1718,52,7,,126.9219,37.489136,3,1,N,N,N,,02-879-5806
2025,1162069500,특정계층이용시설,회원이용시설,새들경로당,서울특별시 관악구 관천로20길 43,서울특별시 관악구 신림동 1451-8,74.88,10,,126.9250784,37.4884242,5,3,N,N,N,,02-879-5806
2025,1162069500,특정계층이용시설,회원이용시설,색동경로당,서울특별시 관악구 신림로70길 74,서울특별시 관악구 신림동 1418-1,86,11,,126.9326888,37.4865046,1,2,N,N,N,,02-879-5806
2025,1162071500,특정계층이용시설,회원이용시설,휴먼시아(아)5경로당,서울특별시 관악구 난곡로 55,서울특별시 관악구 신림동 1735,70,9,,126.918659,37.45824,2,1,N,N,N,,02-879-5806
2025,1162071500,특정계층이용시설,회원이용시설,휴먼시아(아)2경로당,서울특별시 관악구 난곡로 55,서울특별시 관악구 신림동 1735,73,9,,126.92191,37.460165,2,1,N,N,N,,02-879-5806
2025,1162064500,특정계층이용시설,회원이용시설,난향경로당,서울특별시 관악구 난곡로9길 29-2 ,서울특별시 관악구 신림동 678-4,97,12,,126.9181334,37.4640432,4,2,N,N,N,,02-879-5806
2025,1162071500,특정계층이용시설,회원이용시설,국회단지경로당,서울특별시 관악구 난향9길 59-1 ,서울특별시 관악구 신림동 675-330,206,26,,126.91497,37.460303,4,2,N,N,N,,02-879-5806
2025,1162071500,특정계층이용시설,회원이용시설,신림SH빌(아)경로당,서울특별시 관악구 난곡로 80,서울특별시 관악구 신림동 1736-1,64,8,,126.919834,37.46242,2,2,N,N,N,,02-879-5806
2025,1162071500,공공시설,공공청사,난향동주민센터,서울특별시 관악구 난곡로 67,서울특별시 관악구 신림동 1735-5,697.9,56,,126.9188341,37.4615201,2,3,Y,Y,N,,02-879-5806
2025,1162071500,공공시설,복지?문화?체육시설,신림종합사회복지관,서울특별시 관악구 난곡로 110,서울특별시 관악구 신림동 664,400,50,,126.9198616,37.464836,6,6,N,Y,N,,02-879-5806
2025,1162072500,특정계층이용시설,회원이용시설,신도브래뉴(아)경로당,서울특별시 관악구 조원로16길 12,서울특별시 관악구 신림동 1723,112,14,,126.910774,37.483355,3,2,N,N,N,,02-879-5806
2025,1162072500,특정계층이용시설,회원이용시설,구립강남경로당,서울특별시 관악구 조원로4길 24,서울특별시 관악구 신림동 1657-3,191.73,24,,126.9047018,37.4823368,5,3,N,N,N,,02-879-5806
2025,1162072500,특정계층이용시설,회원이용시설,조원경로당,서울특별시 관악구 조원로 48,서울특별시 관악구 신림동 560-6,93,12,,126.907749,37.483492,0,3,N,N,N,,02-879-5806
2025,1162072500,공공시설,공공청사,조원동주민센터,서울특별시 관악구 조원로12길 25,서울특별시 관악구 신림동 568-27,"2,668.93",29,,126.9078078,37.4825884,4,4,Y,Y,N,,02-879-5806
2025,1162073500,특정계층이용시설,회원이용시설,구립대학경로당,서울특별시 관악구 대학12길 16,서울특별시 관악구 신림동 253-13,96,12,,126.9369878,37.466638,4,5,N,N,N,,02-879-5806
2025,1162073500,공공시설,공공청사,대학동주민센터,서울특별시 관악구 신림로 111,서울특별시 관악구 신림동 1516,"1,184.00",35,,126.936964,37.470602,3,1,Y,Y,N,,02-879-5806
2025,1162074500,특정계층이용시설,회원이용시설,태흥(아)경로당,서울특별시 관악구 호암로 541,서울특별시 관악구 신림동 1698,49,6,,126.931009,37.466062,1,1,N,N,N,,02-879-5806
2025,1162074500,특정계층이용시설,회원이용시설,국제산장(아)경로당,서울특별시 관악구 호암로 417,서울특별시 관악구 신림동 1693,109,14,,126.928037,37.460816,3,1,N,N,N,,02-879-5806
2025,1162074500,특정계층이용시설,회원이용시설,삼성산주공(아)경로당,서울특별시 관악구 호암로 399,서울특별시 관악구 신림동 1714,179,23,,126.926031,37.462468,5,2,N,N,N,,02-879-5806
2025,1162074500,특정계층이용시설,회원이용시설,신림동벽산블루밍(아)경로당,서울특별시 관악구 호암로 519,서울특별시 관악구 신림동 1733,68,9,,126.931159,37.463967,3,2,N,N,N,,02-879-5806
2025,1162074500,특정계층이용시설,회원이용시설,돌샘경로당,서울특별시 관악구 호암로18나길 5,서울특별시 관악구 신림동 306-12,143.6,18,,126.9328739,37.4652907,0,4,N,N,N,,02-879-5806
2025,1162074500,특정계층이용시설,회원이용시설,주공2단지(아)경로당,서울특별시 관악구 광신길 86,서울특별시 관악구 신림동 1713,142,18,,126.926697,37.463915,4,2,N,N,N,,02-879-5806
2025,1162074500,특정계층이용시설,회원이용시설,원신경로당,서울특별시 관악구 양지10길 15-1 ,서울특별시 관악구 신림동 368-8,214,27,,126.927994,37.47045,5,2,N,N,N,,02-879-5806
2025,1162074500,특정계층이용시설,회원이용시설,주공1단지(아)경로당,서울특별시 관악구 광신길 160,서울특별시 관악구 신림동 1704-1,106,13,,126.927911,37.465935,6,2,N,N,N,,02-879-5806
2025,1162074500,공공시설,공공청사,삼성동주민센터,서울특별시 관악구 호암로 589,서울특별시 관악구 신림동 1528,210.25,29,,126.9329724,37.470099,4,1,Y,Y,N,,02-879-5806
2025,1162074500,공공시설,복지?문화?체육시설,성민종합복지관,서울특별시 관악구 호암로 549,서울특별시 관악구 신림동 300-4,156,36,,126.9312716,37.4667964,5,2,N,Y,N,,02-879-5806
2025,1162076500,특정계층이용시설,회원이용시설,신림초원(아)경로당,서울특별시 관악구 미성5길 40,서울특별시 관악구 신림동 1712,60,8,,126.914132,37.473436,3,2,N,N,N,,02-879-5806
2025,1162076500,특정계층이용시설,회원이용시설,신림동부센트레빌(아)경로당,서울특별시 관악구 미성3길 16,서울특별시 관악구 신림동 1734,103,13,,126.916342,37.473138,2,2,N,N,N,,02-879-5806
2025,1162076500,특정계층이용시설,회원이용시설,신림푸르지오(아)경로당,서울특별시 관악구 남부순환로 1430,서울특별시 관악구 신림동 1730,28,4,,126.910549,37.479141,5,3,N,N,N,,02-879-5806
2025,1162076500,특정계층이용시설,회원이용시설,미성경로당,서울특별시 관악구 난곡로58길 11,서울특별시 관악구 신림동 1566-35,97.2,12,,126.9157435,37.4800566,2,2,N,N,N,,02-879-5806
2025,1162076500,특정계층이용시설,회원이용시설,약수경로당,서울특별시 관악구 미성길 123,서울특별시 관악구 신림동 733,120,20,,126.912226,37.471838,3,2,N,N,N,,02-879-5806
2025,1162076500,특정계층이용시설,회원이용시설,하난곡경로당,서울특별시 관악구 난우10가길 20-7 ,서울특별시 관악구 신림동 597-96,198,25,,126.919933,37.476792,2,1,N,N,N,,02-879-5806
2025,1162076500,공공시설,공공청사,미성동주민센터,서울특별시 관악구 난곡로 249,서울특별시 관악구 신림동 763-9,300,20,,126.9155578,37.4761902,5,3,Y,Y,N,,02-879-5806
2025,1162077500,특정계층이용시설,회원이용시설,임광관악파크(아)경로당,서울특별시 관악구 난곡로 167,서울특별시 관악구 신림동 1727,59,8,,126.919186,37.469681,1,2,N,N,N,,02-879-5806
2025,1162077500,특정계층이용시설,회원이용시설,건영2차(아)경로당,서울특별시 관악구 난곡로35길 28-7 ,서울특별시 관악구 신림동 721-2,123,16,,126.916847,37.47072,4,1,N,N,N,,02-879-5806
2025,1162077500,특정계층이용시설,회원이용시설,난곡경로당,서울특별시 관악구 난곡로31길 38,서울특별시 관악구 신림동 712-7,305,38,,126.918345,37.4704392,8,3,N,N,N,,02-879-5806
2025,1162077500,특정계층이용시설,회원이용시설,무궁화경로당,서울특별시 관악구 난곡로26다길 17,서울특별시 관악구 신림동 646-7,246,31,,126.9245169,37.4700094,1,3,N,N,N,,02-879-5806
2025,1162077500,특정계층이용시설,회원이용시설,법원경로당,서울특별시 관악구 법원단지25길 15,서울특별시 관악구 신림동 610-47,188,24,,126.922893,37.4758019,4,2,N,N,N,,02-879-5806
2025,1162077500,특정계층이용시설,회원이용시설,우림경로당,서울특별시 관악구 난곡로24가길 19-4 ,서울특별시 관악구 신림동 638-62,268,34,,126.921772,37.469943,0,3,N,N,N,,02-879-5806
2025,1165051000,특정계층이용시설,회원이용시설,중앙노인종합복지관,서울특별시 서초구 서초대로54길 45,서울특별시 서초구 서초동 1666-17,155,10,,127.016803,37.492289,1,2,,Y,,,-
2025,1165051000,공공시설,공공청사,서초1동주민센터,서울특별시 서초구 사임당로 89,서울특별시 서초구 서초동 1649-5,197,20,,127.019443,37.49014,2,1,,Y,,,-
2025,1165051000,특정계층이용시설,회원이용시설,서초1동경로당,서울특별시 서초구 효령로68길 49-3 ,서울특별시 서초구 서초동 1436-6,198,25,,127.02249,37.485434,5,2,N,N,N,,-
2025,1165052000,특정계층이용시설,회원이용시설,서초2동경로당,서울특별시 서초구 강남대로45길 17-2 ,서울특별시 서초구 서초동 1357-48,179,30,,127.0308916,37.4879585,2,2,N,N,N,,-
2025,1165052000,공공시설,공공청사,서초구청1층,서울특별시 서초구 남부순환로 2584,서울특별시 서초구 서초동 1376-3,24.6,7,,127.0326671,37.483634,0,1,,,,,-
2025,1165052000,공공시설,공공청사,서초2동주민센터,서울특별시 서초구 서초대로70길 51,서울특별시 서초구 서초동 1332-6,"2,383.00",50,,127.0249316,37.4920493,10,1,,Y,,,-
2025,1165053000,특정계층이용시설,회원이용시설,서초2차e편한세상경로당,서울특별시 서초구 효령로49길 57,서울특별시 서초구 서초동 1529,135,15,,127.009077,37.486241,4,1,N,N,N,,-
2025,1165053000,특정계층이용시설,회원이용시설,서초한신플러스타운경로당,서울특별시 서초구 남부순환로323길 38-15 ,서울특별시 서초구 서초동 1454-29,75.4,15,,127.014216,37.482878,1,1,N,N,N,,-
2025,1165053000,특정계층이용시설,회원이용시설,서초한빛삼성아파트경로당,서울특별시 서초구 서초대로40길 72,서울특별시 서초구 서초동 1509-1,15,108,,127.007993,37.488157,0,11,,,,,-
2025,1165053000,특정계층이용시설,회원이용시설,서초느티나무쉼터,서울특별시 서초구 반포대로1길 53-3 ,서울특별시 서초구 서초동 1484-6,697.22,10,,127.0108796,37.4828153,0,1,N,N,N,,-
2025,1165053000,특정계층이용시설,회원이용시설,예술의마을경로당,서울특별시 서초구 남부순환로323길 44-15 ,서울특별시 서초구 서초동 1455-4,79,15,,127.0144764,37.4832552,3,3,,Y,,,-
2025,1165053000,특정계층이용시설,회원이용시설,서초3동경로당(서초느티나무쉼터),서울특별시 서초구 반포대로1길 53-3 ,서울특별시 서초구 서초동 1484-6,150.38,15,,127.0108742,37.4828124,0,1,N,N,N,,-
2025,1165053100,특정계층이용시설,회원이용시설,명달경로당,서울특별시 서초구 서운로23길 17,서울특별시 서초구 서초동 1313-17,132,33,,127.0209822,37.4985307,5,10,,Y,,,-
2025,1165053100,특정계층이용시설,회원이용시설,장안경로당,서울특별시 서초구 서초대로55길 13,서울특별시 서초구 서초동 1697-18,172,43,,127.0153395,37.4959159,1,1,,,,,-
2025,1165054000,특정계층이용시설,회원이용시설,잠원동경로당,서울특별시 서초구 강남대로107길 24,서울특별시 서초구 잠원동 7-9,214,20,,127.0173141,37.5178786,2,2,,Y,,,-
2025,1165056000,특정계층이용시설,기타,서초스마트시니어센터시니어라운지,서울특별시 서초구 사평대로 273,서울특별시 서초구 반포동 20-48,,,,127.013379,37.505121,0,5,,Y,,,-
2025,1165056000,특정계층이용시설,회원이용시설,반포복지관경로당시니어라운지,서울특별시 서초구 사평대로55길 90,서울특별시 서초구 반포동 724-12,,,,127.0212731,37.5078854,0,4,N,N,N,,-
2025,1165056000,공공시설,공공청사,반포1동주민센터,서울특별시 서초구 사평대로 273,서울특별시 서초구 반포동 20-48,650,50,,127.0133983,37.5050952,0,5,,Y,,,-
2025,1165056000,특정계층이용시설,회원이용시설,반포복지관경로당,서울특별시 서초구 사평대로55길 90,서울특별시 서초구 반포동 724-12,117,30,,127.021265,37.5078662,0,4,N,N,N,,-
2025,1174060000,생활밀착민간시설,금융기관,국민은행굽은다리역지점,서울특별시 강동구 양재대로 1553,서울특별시 강동구 천호동 44-1,425.99,129,시설 운영시간 내 쉼터 탄력적 운영(공휴일 등 미운영),127.1420884,37.5443617,2,6,N,N,N,,02-3425-8754
2025,1174060000,생활밀착민간시설,유통?판매?서비스시설,홈플러스강동점,서울특별시 강동구 양재대로 1571,서울특별시 강동구 천호동 42,999,303,시설 운영시간 내 쉼터 탄력적 운영(공휴일 등 미운영),127.142254,37.545713,0,20,,,,,02-3425-8754
2025,1174060000,생활밀착민간시설,금융기관,새마을금고천호지점,서울특별시 강동구 구천면로 290,서울특별시 강동구 천호동 237-39,200,61,시설 운영시간 내 쉼터 탄력적 운영(공휴일 등 미운영),127.1336442,37.5455917,2,2,N,N,N,,02-3425-8754
2025,1174060000,공공시설,복지?문화?체육시설,강동구민회관,서울특별시 강동구 상암로 168,서울특별시 강동구 천호동 41,100,30,시설 운영시간 내 쉼터 운영(공휴일 등 미운영),127.1410931,37.5457347,5,2,N,N,N,,02-3425-8754
2025,1174060000,특정계층이용시설,회원이용시설,천호2동경로당,서울특별시 강동구 구천면로13길 21,서울특별시 강동구 천호동 338-19,156,47,,127.1225191,37.5429708,10,2,N,N,N,,02-3425-8754
2025,1174061000,공공시설,복지?문화?체육시설,해공체육문화센터,서울특별시 강동구 천중로18길 61,서울특별시 강동구 천호동 399-1,968.96,294,시설 운영시간 내 쉼터 운영(공휴일 등 미운영),127.129704,37.5420879,0,4,N,N,N,,02-3425-8754
2025,1174060000,특정계층이용시설,회원이용시설,쉼터경로당,서울특별시 강동구 올림픽로89길 27-23 ,서울특별시 강동구 천호동 321-22,99.85,30,,127.124087,37.5468002,2,1,N,N,N,,02-3425-8754
2025,1174060000,생활밀착민간시설,금융기관,강동농협로데오지점,서울특별시 강동구 천호대로157길 53,서울특별시 강동구 천호동 421-10,40,12,시설 운영시간 내 쉼터 탄력적 운영(공휴일 등 미운영),127.1275294,37.5401832,2,2,N,N,N,,02-3425-8754
2025,1174061000,특정계층이용시설,회원이용시설,곡교경로당,서울특별시 강동구 구천면로39길 23,서울특별시 강동구 천호동 300,101.2,31,,127.1318383,37.5454043,2,2,N,N,N,,02-3425-8754
2025,1174060000,생활밀착민간시설,금융기관,농협천호동지점,서울특별시 강동구 올림픽로 659,서울특별시 강동구 천호동 432-10,50,15,시설 운영시간 내 쉼터 탄력적 운영(공휴일 등 미운영),127.1235648,37.5403064,2,2,N,N,N,,02-3425-8754
2025,1174061000,생활밀착민간시설,유통?판매?서비스시설,현대백화점천호점,서울특별시 강동구 천호대로 1005,서울특별시 강동구 천호동 572,999,303,시설 운영시간 내 쉼터 탄력적 운영(공휴일 등 미운영),127.1244335,37.5389797,0,1,N,N,N,,02-3425-8754
2025,1174061000,생활밀착민간시설,유통?판매?서비스시설,이마트천호점,서울특별시 강동구 천호대로 1017,서울특별시 강동구 천호동 454-1,999,303,시설 운영시간 내 쉼터 탄력적 운영(공휴일 등 미운영),127.1251463,37.5387298,0,10,N,N,N,,02-3425-8754
2025,1174061000,특정계층이용시설,회원이용시설,구립해공노인복지관,서울특별시 강동구 천중로17길 42-16 ,서울특별시 강동구 천호동 302-4,597.79,181,,127.131727,37.546181,2,2,N,N,N,,02-3425-8754
2025,1174061000,특정계층이용시설,회원이용시설,천호문구거리경로당,서울특별시 강동구 구천면로18길 24,서울특별시 강동구 천호동 457-45,75.21,23,,127.1225878,37.5406534,2,2,N,N,N,,02-3425-8754
2025,1174061000,생활밀착민간시설,종교시설,구강사,서울특별시 강동구 천중로 64,서울특별시 강동구 천호동 363,50,15,시설 운영시간 내 쉼터 탄력적 운영(공휴일 등 미운영),127.1288199,37.5448184,3,1,N,N,N,,02-3425-8754
2025,1174061000,공공시설,복지?문화?체육시설,해공도서관,서울특별시 강동구 올림픽로 702,서울특별시 강동구 천호동 360,100,30,시설 운영시간 내 쉼터 운영(공휴일 등 미운영),127.125549,37.543837,10,10,N,N,N,,02-3425-8754
2025,1174061000,생활밀착민간시설,금융기관,신한은행천호동금융센터점,서울특별시 강동구 올림픽로 674,서울특별시 강동구 천호동 355,50,15,시설 운영시간 내 쉼터 탄력적 운영(공휴일 등 미운영),127.1248217,37.5414405,3,10,N,N,N,,02-3425-8754
2025,1171058000,공공시설,공공청사,송파1동주민센터,서울특별시 송파구 백제고분로 392,서울특별시 송파구 송파동 113-1,"1,482.88",20,,127.1093462,37.5063102,15,3,,,,,-
2025,1171059000,특정계층이용시설,회원이용시설,삼성래미안경로당,서울특별시 송파구 오금로32길 14 (송파삼성래미안아파트 관리사무소),서울특별시 송파구 송파동 162,132.51,59,누구나 이용가능에 동의,127.118969,37.505324,4,1,,,,,-
2025,1171059000,특정계층이용시설,회원이용시설,삼익경로당,서울특별시 송파구 오금로32길 5 (가락삼익맨숀 관리사무소),서울특별시 송파구 송파동 166,118.8,12,누구나 이용가능에 동의,127.120802,37.504372,2,1,N,N,N,,-
2025,1171059000,특정계층이용시설,회원이용시설,송파미성경로당,서울특별시 송파구 오금로32길 10 (미성맨션),서울특별시 송파구 송파동 161,74.4,20,누구나 이용가능에 동의,127.119074,37.505717,2,1,,,,,-
2025,1171059000,특정계층이용시설,회원이용시설,한양2차경로당,서울특별시 송파구 가락로 192 (송파동),서울특별시 송파구 송파동 151,146.2,29,누구나 이용가능에 동의,127.115094,37.504594,1,1,,,,,-
2025,1171059000,특정계층이용시설,회원이용시설,송파제2경로당,서울특별시 송파구 송파대로38길 1,서울특별시 송파구 송파동 97-41,90.5,41,누구나 이용가능에 동의,127.1119,37.5007,3,2,Y,Y,N,,-
2025,1171059000,특정계층이용시설,회원이용시설,래미안송파파인탑경로당,서울특별시 송파구 오금로32길 31,서울특별시 송파구 송파동 243,113.06,17,누구나 이용가능에 동의,127.1201893,37.5030558,4,2,N,N,N,,-
2025,1171058000,공공시설,공공청사,송파2동주민센터,서울특별시 송파구 송이로 32,서울특별시 송파구 송파동 173,940.9,20,,127.1167386,37.502301,1,1,N,N,N,,-
2025,1171060000,특정계층이용시설,회원이용시설,오봉산경로당,서울특별시 송파구 석촌호수로20길 13,서울특별시 송파구 석촌동 162,106.84,34,누구나 이용가능에 동의,127.1022924,37.50613,5,2,N,N,N,,-
2025,1171060000,특정계층이용시설,회원이용시설,돌마리경로당,서울특별시 송파구 가락로7길 4,서울특별시 송파구 석촌동 258,155.79,58,누구나 이용가능에 동의,127.1032652,37.5006205,6,2,N,N,N,,-
2025,1171060000,특정계층이용시설,회원이용시설,석촌경로당,서울특별시 송파구 백제고분로40길 13-16 ,서울특별시 송파구 석촌동 289-2,157.83,27,누구나 이용가능에 동의,127.1074493,37.503554,6,2,N,N,N,,-
2025,1171060000,공공시설,공공청사,석촌동주민센터,서울특별시 송파구 백제고분로37길 16,서울특별시 송파구 석촌동 265,"1,051.61",20,,127.1036855,37.5035646,6,5,N,N,N,,-
2025,1171061000,특정계층이용시설,회원이용시설,송파노인종합복지관,서울특별시 송파구 백제고분로32길 41,서울특별시 송파구 삼전동 172-2,"4,901.00",30,누구나 이용 가능,127.0948997,37.4987229,3,1,N,N,N,,-
2025,1171061000,특정계층이용시설,회원이용시설,삼전제2경로당,서울특별시 송파구 백제고분로27길 40-24 ,서울특별시 송파구 삼전동 110-7,54.2,14,누구나 이용가능에 동의,127.095305,37.5062924,2,1,N,N,N,,-
2025,1171061000,공공시설,공공청사,삼전동주민센터,서울특별시 송파구 백제고분로 236,서울특별시 송파구 삼전동 62,"1,099.24",20,,127.0924205,37.502701,1,5,N,N,N,,-
2025,1171062000,특정계층이용시설,회원이용시설,가락쌍용2차경로당,서울특별시 송파구 송이로15길 31 (가락2차쌍용아파트 노인.관리동),서울특별시 송파구 가락동 21-6,119.19,20,누구나 이용가능에 동의,127.122201,37.50213,2,1,N,N,N,,-
2025,1171062000,특정계층이용시설,회원이용시설,가락우성경로당,서울특별시 송파구 송파대로32길 8 (가락우성아파트 상가),서울특별시 송파구 가락동 96-1,81.5,48,"폭염특보시 연장운영, 누구나 이용가능에 동의",127.118032,37.497191,3,1,N,N,N,,-
2025,1171062000,특정계층이용시설,회원이용시설,가락우성2차경로당,서울특별시 송파구 중대로12길 35 (가락우성2차아파트 101동),서울특별시 송파구 가락동 120-4,26.68,21,누구나 이용가능에 동의,127.125666,37.491598,2,1,N,N,N,,-
2025,1171062000,특정계층이용시설,회원이용시설,가락본경로당,서울특별시 송파구 양재대로62길 32-13 ,서울특별시 송파구 가락동 85,106.84,33,누구나 이용가능에 동의,127.1190412,37.4966331,3,2,N,N,N,,-
2025,1171062000,특정계층이용시설,회원이용시설,훙이경로당,서울특별시 송파구 송이로17길 48,서울특별시 송파구 가락동 14,106.84,38,누구나 이용가능에 동의,127.1247534,37.501198,5,2,N,N,N,,-
2025,1171062000,특정계층이용시설,회원이용시설,건너말경로당,서울특별시 송파구 중대로10길 29,서울특별시 송파구 가락동 110,123.02,45,"폭염특보시 연장운영, 누구나 이용가능에 동의",127.1234932,37.4916391,4,1,Y,Y,N,,-
2025,1171063100,특정계층이용시설,회원이용시설,헬리오시티5단지,서울특별시 송파구 송파대로 345 (가락동),서울특별시 송파구 가락동 913,283.96,51,누구나 이용가능에 동의,127.109083,37.499261,1,6,N,N,N,,-
2025,1171063100,특정계층이용시설,회원이용시설,헬리오시티3단지,서울특별시 송파구 송파대로 345 (헬리오시티 110동),서울특별시 송파구 가락동 913,283.96,57,누구나 이용가능에 동의,127.105076,37.497895,1,6,N,N,N,,-
2025,1171063100,특정계층이용시설,회원이용시설,헬리오시티4단지,서울특별시 송파구 송파대로 345 (헬리오시티 412동),서울특별시 송파구 가락동 913,283.96,50,누구나 이용가능에 동의,127.111294,37.497726,1,6,N,N,N,,-
2025,1171063100,특정계층이용시설,회원이용시설,헬리오시티2단지,서울특별시 송파구 송파대로 345 (헬리오시티 108동),서울특별시 송파구 가락동 913,283.96,53,누구나 이용가능에 동의,127.107927,37.49661,1,6,N,N,N,,-
2025,1171063100,특정계층이용시설,회원이용시설,헬리오시티1단지,서울특별시 송파구 송파대로 345 (헬리오시티 110동),서울특별시 송파구 가락동 913,283.96,77,누구나 이용가능에 동의,127.103923,37.494946,1,6,N,N,N,,-
2025,1171063100,특정계층이용시설,회원이용시설,가락시장,서울특별시 송파구 양재대로 932,서울특별시 송파구 가락동 600,135,82,누구나 이용가능에 동의,127.115024,37.49432,1,2,N,N,N,,-
2025,1171063100,공공시설,공공청사,가락1동주민센터,서울특별시 송파구 양재대로 925,서울특별시 송파구 가락동 915,165,20,,127.1098699,37.4965083,10,5,N,N,N,,-
2025,1171063200,특정계층이용시설,회원이용시설,래미안파크경로당,"서울특별시 송파구 동남로 225 (래미안파크팰리스 경로당,관리실)",서울특별시 송파구 가락동 165,117.62,37,누구나 무더위쉼터 이용가능에 동의,127.132487,37.498882,1,1,N,N,N,,-
2025,1171063200,특정계층이용시설,회원이용시설,가락2쌍용경로당,서울특별시 송파구 동남로 193 (가락쌍용아파트 관리소),서울특별시 송파구 가락동 140,306.53,60,누구나 무더위쉼터 이용가능에 동의,127.128388,37.495607,4,2,N,N,N,,-
2025,1171063200,특정계층이용시설,회원이용시설,미륭경로당,서울특별시 송파구 동남로11길 4 (미륭아파트 관리사무소),서울특별시 송파구 가락동 138,40,14,누구나 무더위쉼터 이용가능에 동의,127.129188,37.493445,2,1,N,N,N,,-
2025,1171063200,특정계층이용시설,회원이용시설,샛팽이경로당,서울특별시 송파구 오금로42길 15,서울특별시 송파구 가락동 170-6,146,16,누구나 무더위쉼터 이용가능에 동의,127.1339413,37.4967963,2,1,N,N,N,,-
2025,1171063200,특정계층이용시설,회원이용시설,개롱경로당,서울특별시 송파구 동남로14길 17-46 ,서울특별시 송파구 가락동 198,106.84,22,"폭염특보 발효시 연장운영, 누구나 무더위쉼터 이용가능에 동의",127.133221,37.493159,2,2,Y,Y,N,,-
2025,1171063200,특정계층이용시설,회원이용시설,가락골경로당,서울특별시 송파구 송이로23길 16-28 ,서울특별시 송파구 가락동 145-10,106.84,28,누구나 무더위쉼터 이용가능에 동의,127.1257695,37.4947674,3,2,N,N,N,,-
2025,1171063200,공공시설,공공청사,가락2동주민센터,서울특별시 송파구 중대로20길 6,서울특별시 송파구 가락동 154,994.44,30,,127.1266084,37.4986768,7,1,N,N,N,,-
